% program   : RTKLIB MATLAB
% sol start : 2025/03/01 07:43:30.0 GPST
% sol end   : 2025/03/01 07:49:35.0 GPST
%
% (lat/lon/height=WGS84/ellipsoidal,Q=1:fix,2:float,3:sbas,4:dgps,5:single,6:ppp,ns=# of satellites)
%  GPST                  latitude(deg) longitude(deg)  height(m)   Q  ns   sdn(m)   sde(m)   sdu(m)  sdne(m)  sdeu(m)  sdun(m) age(s)  ratio
2025/03/01 07:43:30.000   35.161446640  136.882662119    15.4209   1   1   0.0000   0.0000   0.0000   0.0000   0.0000   0.0000   0.00    0.0
2025/03/01 07:43:31.000   35.161475019  136.882775596    16.0067   1   1   0.0000   0.0000   0.0000   0.0000   0.0000   0.0000   0.00    0.0
2025/03/01 07:43:32.000   35.161462399  136.882907774    19.3202   1   1   0.0000   0.0000   0.0000   0.0000   0.0000   0.0000   0.00    0.0
2025/03/01 07:43:33.000   35.162227326  136.883125320    27.0133   1   1   0.0000   0.0000   0.0000   0.0000   0.0000   0.0000   0.00    0.0
2025/03/01 07:43:34.000   35.161799824  136.883121115    41.5506   1   1   0.0000   0.0000   0.0000   0.0000   0.0000   0.0000   0.00    0.0
2025/03/01 07:43:35.000   35.161721384  136.883212969    43.8618   1   1   0.0000   0.0000   0.0000   0.0000   0.0000   0.0000   0.00    0.0
2025/03/01 07:43:36.000   35.161702178  136.883341573    38.8773   1   1   0.0000   0.0000   0.0000   0.0000   0.0000   0.0000   0.00    0.0
2025/03/01 07:43:37.000   35.161712348  136.883446338    39.2205   1   1   0.0000   0.0000   0.0000   0.0000   0.0000   0.0000   0.00    0.0
2025/03/01 07:43:38.000   35.161702917  136.883546372    35.9417   1   1   0.0000   0.0000   0.0000   0.0000   0.0000   0.0000   0.00    0.0
2025/03/01 07:43:39.000   35.161735413  136.883639886    35.9358   1   1   0.0000   0.0000   0.0000   0.0000   0.0000   0.0000   0.00    0.0
2025/03/01 07:43:40.000   35.161765552  136.883736997    36.4028   1   1   0.0000   0.0000   0.0000   0.0000   0.0000   0.0000   0.00    0.0
2025/03/01 07:43:41.000   35.161798312  136.883832587    36.6402   1   1   0.0000   0.0000   0.0000   0.0000   0.0000   0.0000   0.00    0.0
2025/03/01 07:43:42.000   35.161829185  136.883924116    36.7699   1   1   0.0000   0.0000   0.0000   0.0000   0.0000   0.0000   0.00    0.0
2025/03/01 07:43:43.000   35.161869175  136.884008399    39.3448   1   1   0.0000   0.0000   0.0000   0.0000   0.0000   0.0000   0.00    0.0
2025/03/01 07:43:44.000   35.161882842  136.884090045    39.3336   1   1   0.0000   0.0000   0.0000   0.0000   0.0000   0.0000   0.00    0.0
2025/03/01 07:43:45.000   35.161903845  136.884165191    41.0527   1   1   0.0000   0.0000   0.0000   0.0000   0.0000   0.0000   0.00    0.0
2025/03/01 07:43:46.000   35.161919859  136.884239454    41.4356   1   1   0.0000   0.0000   0.0000   0.0000   0.0000   0.0000   0.00    0.0
2025/03/01 07:43:47.000   35.161936842  136.884305964    41.6773   1   1   0.0000   0.0000   0.0000   0.0000   0.0000   0.0000   0.00    0.0
2025/03/01 07:43:48.000   35.161955582  136.884371446    41.9123   1   1   0.0000   0.0000   0.0000   0.0000   0.0000   0.0000   0.00    0.0
2025/03/01 07:43:49.000   35.161973344  136.884436795    41.9510   1   1   0.0000   0.0000   0.0000   0.0000   0.0000   0.0000   0.00    0.0
2025/03/01 07:43:50.000   35.161993399  136.884504108    42.2655   1   1   0.0000   0.0000   0.0000   0.0000   0.0000   0.0000   0.00    0.0
2025/03/01 07:43:51.000   35.162012667  136.884576363    42.4716   1   1   0.0000   0.0000   0.0000   0.0000   0.0000   0.0000   0.00    0.0
2025/03/01 07:43:52.000   35.162026656  136.884654019    42.4622   1   1   0.0000   0.0000   0.0000   0.0000   0.0000   0.0000   0.00    0.0
2025/03/01 07:43:53.000   35.162039404  136.884732575    42.2624   1   1   0.0000   0.0000   0.0000   0.0000   0.0000   0.0000   0.00    0.0
2025/03/01 07:43:54.000   35.162051278  136.884809342    42.2347   1   1   0.0000   0.0000   0.0000   0.0000   0.0000   0.0000   0.00    0.0
2025/03/01 07:43:55.000   35.162063085  136.884884706    42.3509   1   1   0.0000   0.0000   0.0000   0.0000   0.0000   0.0000   0.00    0.0
2025/03/01 07:43:56.000   35.162066723  136.884942076    34.3802   1   1   0.0000   0.0000   0.0000   0.0000   0.0000   0.0000   0.00    0.0
2025/03/01 07:43:57.000   35.162078314  136.885014509    32.8724   1   1   0.0000   0.0000   0.0000   0.0000   0.0000   0.0000   0.00    0.0
2025/03/01 07:43:58.000   35.162094319  136.885088490    32.4231   1   1   0.0000   0.0000   0.0000   0.0000   0.0000   0.0000   0.00    0.0
2025/03/01 07:43:59.000   35.162111468  136.885161978    32.0979   1   1   0.0000   0.0000   0.0000   0.0000   0.0000   0.0000   0.00    0.0
2025/03/01 07:44:00.000   35.162134999  136.885245303    40.4180   1   1   0.0000   0.0000   0.0000   0.0000   0.0000   0.0000   0.00    0.0
2025/03/01 07:44:01.000   35.162149751  136.885320150    41.5947   1   1   0.0000   0.0000   0.0000   0.0000   0.0000   0.0000   0.00    0.0
2025/03/01 07:44:02.000  -90.000000000    0.000000000  -nan(ind)   1   1   0.0000   0.0000   0.0000   0.0000   0.0000   0.0000   0.00    0.0
2025/03/01 07:44:03.000   35.162173355  136.885470397    40.1555   1   1   0.0000   0.0000   0.0000   0.0000   0.0000   0.0000   0.00    0.0
2025/03/01 07:44:04.000  -90.000000000    0.000000000  -nan(ind)   1   1   0.0000   0.0000   0.0000   0.0000   0.0000   0.0000   0.00    0.0
2025/03/01 07:44:05.000   35.162194581  136.885601218    35.5566   1   1   0.0000   0.0000   0.0000   0.0000   0.0000   0.0000   0.00    0.0
2025/03/01 07:44:06.000   35.162202883  136.885642638    37.0929   1   1   0.0000   0.0000   0.0000   0.0000   0.0000   0.0000   0.00    0.0
2025/03/01 07:44:07.000   35.162217441  136.885697008    36.9005   1   1   0.0000   0.0000   0.0000   0.0000   0.0000   0.0000   0.00    0.0
2025/03/01 07:44:08.000  -90.000000000    0.000000000  -nan(ind)   1   1   0.0000   0.0000   0.0000   0.0000   0.0000   0.0000   0.00    0.0
2025/03/01 07:44:09.000  -90.000000000    0.000000000  -nan(ind)   1   1   0.0000   0.0000   0.0000   0.0000   0.0000   0.0000   0.00    0.0
2025/03/01 07:44:10.000   35.162219996  136.885786506    35.8343   1   1   0.0000   0.0000   0.0000   0.0000   0.0000   0.0000   0.00    0.0
2025/03/01 07:44:11.000   35.162224301  136.885797155    36.1139   1   1   0.0000   0.0000   0.0000   0.0000   0.0000   0.0000   0.00    0.0
2025/03/01 07:44:12.000   35.162225903  136.885802718    35.1621   1   1   0.0000   0.0000   0.0000   0.0000   0.0000   0.0000   0.00    0.0
2025/03/01 07:44:13.000   35.162228013  136.885810276    34.6056   1   1   0.0000   0.0000   0.0000   0.0000   0.0000   0.0000   0.00    0.0
2025/03/01 07:44:14.000   35.162226414  136.885810225    34.2560   1   1   0.0000   0.0000   0.0000   0.0000   0.0000   0.0000   0.00    0.0
2025/03/01 07:44:15.000   35.162225184  136.885815628    34.2472   1   1   0.0000   0.0000   0.0000   0.0000   0.0000   0.0000   0.00    0.0
2025/03/01 07:44:16.000   35.162221411  136.885824035    34.1884   1   1   0.0000   0.0000   0.0000   0.0000   0.0000   0.0000   0.00    0.0
2025/03/01 07:44:17.000   35.162217599  136.885832898    33.7992   1   1   0.0000   0.0000   0.0000   0.0000   0.0000   0.0000   0.00    0.0
2025/03/01 07:44:18.000   35.162216425  136.885832818    33.0217   1   1   0.0000   0.0000   0.0000   0.0000   0.0000   0.0000   0.00    0.0
2025/03/01 07:44:19.000   35.162216180  136.885828201    31.9396   1   1   0.0000   0.0000   0.0000   0.0000   0.0000   0.0000   0.00    0.0
2025/03/01 07:44:20.000   35.162217632  136.885825305    31.1605   1   1   0.0000   0.0000   0.0000   0.0000   0.0000   0.0000   0.00    0.0
2025/03/01 07:44:21.000   35.162219236  136.885822743    30.4776   1   1   0.0000   0.0000   0.0000   0.0000   0.0000   0.0000   0.00    0.0
2025/03/01 07:44:22.000   35.162218014  136.885833586    33.0489   1   1   0.0000   0.0000   0.0000   0.0000   0.0000   0.0000   0.00    0.0
2025/03/01 07:44:23.000   35.162220698  136.885828046    31.4946   1   1   0.0000   0.0000   0.0000   0.0000   0.0000   0.0000   0.00    0.0
2025/03/01 07:44:24.000   35.162222006  136.885826501    30.9898   1   1   0.0000   0.0000   0.0000   0.0000   0.0000   0.0000   0.00    0.0
2025/03/01 07:44:25.000   35.162222259  136.885832056    32.3404   1   1   0.0000   0.0000   0.0000   0.0000   0.0000   0.0000   0.00    0.0
2025/03/01 07:44:26.000   35.162223172  136.885829971    31.7849   1   1   0.0000   0.0000   0.0000   0.0000   0.0000   0.0000   0.00    0.0
2025/03/01 07:44:27.000   35.162223297  136.885825161    30.5833   1   1   0.0000   0.0000   0.0000   0.0000   0.0000   0.0000   0.00    0.0
2025/03/01 07:44:28.000   35.162223423  136.885825836    30.3099   1   1   0.0000   0.0000   0.0000   0.0000   0.0000   0.0000   0.00    0.0
2025/03/01 07:44:29.000   35.162222746  136.885831888    30.0396   1   1   0.0000   0.0000   0.0000   0.0000   0.0000   0.0000   0.00    0.0
2025/03/01 07:44:30.000   35.162223146  136.885839402    29.9220   1   1   0.0000   0.0000   0.0000   0.0000   0.0000   0.0000   0.00    0.0
2025/03/01 07:44:31.000   35.162221683  136.885845981    29.7375   1   1   0.0000   0.0000   0.0000   0.0000   0.0000   0.0000   0.00    0.0
2025/03/01 07:44:32.000   35.162219606  136.885849550    29.4748   1   1   0.0000   0.0000   0.0000   0.0000   0.0000   0.0000   0.00    0.0
2025/03/01 07:44:33.000   35.162218375  136.885850865    29.3122   1   1   0.0000   0.0000   0.0000   0.0000   0.0000   0.0000   0.00    0.0
2025/03/01 07:44:34.000   35.162218734  136.885855965    29.1999   1   1   0.0000   0.0000   0.0000   0.0000   0.0000   0.0000   0.00    0.0
2025/03/01 07:44:35.000   35.162218273  136.885862228    29.2005   1   1   0.0000   0.0000   0.0000   0.0000   0.0000   0.0000   0.00    0.0
2025/03/01 07:44:36.000   35.162218250  136.885868820    29.4742   1   1   0.0000   0.0000   0.0000   0.0000   0.0000   0.0000   0.00    0.0
2025/03/01 07:44:37.000   35.162221131  136.885878747    29.8915   1   1   0.0000   0.0000   0.0000   0.0000   0.0000   0.0000   0.00    0.0
2025/03/01 07:44:38.000   35.162237318  136.885892742    30.3586   1   1   0.0000   0.0000   0.0000   0.0000   0.0000   0.0000   0.00    0.0
2025/03/01 07:44:39.000   35.162255488  136.885903518    30.4714   1   1   0.0000   0.0000   0.0000   0.0000   0.0000   0.0000   0.00    0.0
2025/03/01 07:44:40.000   35.162273315  136.885933762    30.7139   1   1   0.0000   0.0000   0.0000   0.0000   0.0000   0.0000   0.00    0.0
2025/03/01 07:44:41.000   35.162290414  136.885974000    31.1258   1   1   0.0000   0.0000   0.0000   0.0000   0.0000   0.0000   0.00    0.0
2025/03/01 07:44:42.000   35.162323073  136.886023381    31.6017   1   1   0.0000   0.0000   0.0000   0.0000   0.0000   0.0000   0.00    0.0
2025/03/01 07:44:43.000   35.162328422  136.885997906    40.3509   1   1   0.0000   0.0000   0.0000   0.0000   0.0000   0.0000   0.00    0.0
2025/03/01 07:44:44.000   35.162379507  136.886032710    40.3494   1   1   0.0000   0.0000   0.0000   0.0000   0.0000   0.0000   0.00    0.0
2025/03/01 07:44:45.000   35.162437235  136.886025025    40.2107   1   1   0.0000   0.0000   0.0000   0.0000   0.0000   0.0000   0.00    0.0
2025/03/01 07:44:46.000   35.162502163  136.886005952    40.0355   1   1   0.0000   0.0000   0.0000   0.0000   0.0000   0.0000   0.00    0.0
2025/03/01 07:44:47.000   35.162575512  136.885985819    40.0282   1   1   0.0000   0.0000   0.0000   0.0000   0.0000   0.0000   0.00    0.0
2025/03/01 07:44:48.000   35.162656862  136.885963658    40.0646   1   1   0.0000   0.0000   0.0000   0.0000   0.0000   0.0000   0.00    0.0
2025/03/01 07:44:49.000   35.162744866  136.885940444    40.0487   1   1   0.0000   0.0000   0.0000   0.0000   0.0000   0.0000   0.00    0.0
2025/03/01 07:44:50.000   35.162837905  136.885916051    40.0490   1   1   0.0000   0.0000   0.0000   0.0000   0.0000   0.0000   0.00    0.0
2025/03/01 07:44:51.000   35.162936499  136.885892602    40.0831   1   1   0.0000   0.0000   0.0000   0.0000   0.0000   0.0000   0.00    0.0
2025/03/01 07:44:52.000   35.163040001  136.885872732    40.1668   1   1   0.0000   0.0000   0.0000   0.0000   0.0000   0.0000   0.00    0.0
2025/03/01 07:44:53.000   35.163147238  136.885854757    40.2139   1   1   0.0000   0.0000   0.0000   0.0000   0.0000   0.0000   0.00    0.0
2025/03/01 07:44:54.000   35.163254372  136.885835834    40.2650   1   1   0.0000   0.0000   0.0000   0.0000   0.0000   0.0000   0.00    0.0
2025/03/01 07:44:55.000   35.163358117  136.885814704    40.3026   1   1   0.0000   0.0000   0.0000   0.0000   0.0000   0.0000   0.00    0.0
2025/03/01 07:44:56.000   35.163458428  136.885791716    40.3636   1   1   0.0000   0.0000   0.0000   0.0000   0.0000   0.0000   0.00    0.0
2025/03/01 07:44:57.000   35.163555572  136.885768576    40.2904   1   1   0.0000   0.0000   0.0000   0.0000   0.0000   0.0000   0.00    0.0
2025/03/01 07:44:58.000   35.163649324  136.885745734    40.3083   1   1   0.0000   0.0000   0.0000   0.0000   0.0000   0.0000   0.00    0.0
2025/03/01 07:44:59.000   35.163738125  136.885724330    40.3560   1   1   0.0000   0.0000   0.0000   0.0000   0.0000   0.0000   0.00    0.0
2025/03/01 07:45:00.000   35.163821008  136.885705037    40.3506   1   1   0.0000   0.0000   0.0000   0.0000   0.0000   0.0000   0.00    0.0
2025/03/01 07:45:01.000   35.163894260  136.885688806    40.3181   1   1   0.0000   0.0000   0.0000   0.0000   0.0000   0.0000   0.00    0.0
2025/03/01 07:45:02.000   35.163956420  136.885674822    40.3800   1   1   0.0000   0.0000   0.0000   0.0000   0.0000   0.0000   0.00    0.0
2025/03/01 07:45:03.000   35.164009512  136.885663681    40.3390   1   1   0.0000   0.0000   0.0000   0.0000   0.0000   0.0000   0.00    0.0
2025/03/01 07:45:04.000   35.164054189  136.885654884    40.3633   1   1   0.0000   0.0000   0.0000   0.0000   0.0000   0.0000   0.00    0.0
2025/03/01 07:45:05.000   35.164087880  136.885647966    40.4021   1   1   0.0000   0.0000   0.0000   0.0000   0.0000   0.0000   0.00    0.0
2025/03/01 07:45:06.000   35.164112058  136.885643293    40.3932   1   1   0.0000   0.0000   0.0000   0.0000   0.0000   0.0000   0.00    0.0
2025/03/01 07:45:07.000   35.164128143  136.885640435    40.3927   1   1   0.0000   0.0000   0.0000   0.0000   0.0000   0.0000   0.00    0.0
2025/03/01 07:45:08.000   35.164136688  136.885638518    40.4041   1   1   0.0000   0.0000   0.0000   0.0000   0.0000   0.0000   0.00    0.0
2025/03/01 07:45:09.000   35.164138753  136.885638248    40.3912   1   1   0.0000   0.0000   0.0000   0.0000   0.0000   0.0000   0.00    0.0
2025/03/01 07:45:10.000   35.164138761  136.885638248    40.3898   1   1   0.0000   0.0000   0.0000   0.0000   0.0000   0.0000   0.00    0.0
2025/03/01 07:45:11.000   35.164138741  136.885638227    40.3916   1   1   0.0000   0.0000   0.0000   0.0000   0.0000   0.0000   0.00    0.0
2025/03/01 07:45:12.000   35.164138748  136.885638222    40.3931   1   1   0.0000   0.0000   0.0000   0.0000   0.0000   0.0000   0.00    0.0
2025/03/01 07:45:13.000   35.164138757  136.885638214    40.3942   1   1   0.0000   0.0000   0.0000   0.0000   0.0000   0.0000   0.00    0.0
2025/03/01 07:45:14.000   35.164138750  136.885638226    40.3925   1   1   0.0000   0.0000   0.0000   0.0000   0.0000   0.0000   0.00    0.0
2025/03/01 07:45:15.000   35.164138727  136.885638197    40.3950   1   1   0.0000   0.0000   0.0000   0.0000   0.0000   0.0000   0.00    0.0
2025/03/01 07:45:16.000   35.164138732  136.885638218    40.3917   1   1   0.0000   0.0000   0.0000   0.0000   0.0000   0.0000   0.00    0.0
2025/03/01 07:45:17.000   35.164138730  136.885638208    40.3973   1   1   0.0000   0.0000   0.0000   0.0000   0.0000   0.0000   0.00    0.0
2025/03/01 07:45:18.000   35.164138735  136.885638200    40.3998   1   1   0.0000   0.0000   0.0000   0.0000   0.0000   0.0000   0.00    0.0
2025/03/01 07:45:19.000   35.164138752  136.885638213    40.4018   1   1   0.0000   0.0000   0.0000   0.0000   0.0000   0.0000   0.00    0.0
2025/03/01 07:45:20.000   35.164138770  136.885638241    40.4004   1   1   0.0000   0.0000   0.0000   0.0000   0.0000   0.0000   0.00    0.0
2025/03/01 07:45:21.000   35.164138748  136.885638218    40.4027   1   1   0.0000   0.0000   0.0000   0.0000   0.0000   0.0000   0.00    0.0
2025/03/01 07:45:22.000   35.164138720  136.885638214    40.4037   1   1   0.0000   0.0000   0.0000   0.0000   0.0000   0.0000   0.00    0.0
2025/03/01 07:45:23.000   35.164138753  136.885638209    40.4020   1   1   0.0000   0.0000   0.0000   0.0000   0.0000   0.0000   0.00    0.0
2025/03/01 07:45:24.000   35.164138779  136.885638212    40.3937   1   1   0.0000   0.0000   0.0000   0.0000   0.0000   0.0000   0.00    0.0
2025/03/01 07:45:25.000   35.164138788  136.885638197    40.4026   1   1   0.0000   0.0000   0.0000   0.0000   0.0000   0.0000   0.00    0.0
2025/03/01 07:45:26.000   35.164138740  136.885638177    40.4033   1   1   0.0000   0.0000   0.0000   0.0000   0.0000   0.0000   0.00    0.0
2025/03/01 07:45:27.000   35.164138690  136.885638176    40.4093   1   1   0.0000   0.0000   0.0000   0.0000   0.0000   0.0000   0.00    0.0
2025/03/01 07:45:28.000   35.164138769  136.885638191    40.4117   1   1   0.0000   0.0000   0.0000   0.0000   0.0000   0.0000   0.00    0.0
2025/03/01 07:45:29.000   35.164142440  136.885637455    40.4167   1   1   0.0000   0.0000   0.0000   0.0000   0.0000   0.0000   0.00    0.0
2025/03/01 07:45:30.000   35.164156084  136.885635091    40.4086   1   1   0.0000   0.0000   0.0000   0.0000   0.0000   0.0000   0.00    0.0
2025/03/01 07:45:31.000   35.164180720  136.885630530    40.3988   1   1   0.0000   0.0000   0.0000   0.0000   0.0000   0.0000   0.00    0.0
2025/03/01 07:45:32.000   35.164215010  136.885624074    40.4333   1   1   0.0000   0.0000   0.0000   0.0000   0.0000   0.0000   0.00    0.0
2025/03/01 07:45:33.000   35.164258147  136.885617554    40.5023   1   1   0.0000   0.0000   0.0000   0.0000   0.0000   0.0000   0.00    0.0
2025/03/01 07:45:34.000   35.164310103  136.885612036    40.4987   1   1   0.0000   0.0000   0.0000   0.0000   0.0000   0.0000   0.00    0.0
2025/03/01 07:45:35.000   35.164370290  136.885606253    40.4974   1   1   0.0000   0.0000   0.0000   0.0000   0.0000   0.0000   0.00    0.0
2025/03/01 07:45:36.000   35.164438332  136.885599193    40.5178   1   1   0.0000   0.0000   0.0000   0.0000   0.0000   0.0000   0.00    0.0
2025/03/01 07:45:37.000   35.164513082  136.885590191    40.5332   1   1   0.0000   0.0000   0.0000   0.0000   0.0000   0.0000   0.00    0.0
2025/03/01 07:45:38.000   35.164593073  136.885579789    40.5525   1   1   0.0000   0.0000   0.0000   0.0000   0.0000   0.0000   0.00    0.0
2025/03/01 07:45:39.000   35.164676758  136.885568285    40.6318   1   1   0.0000   0.0000   0.0000   0.0000   0.0000   0.0000   0.00    0.0
2025/03/01 07:45:40.000   35.164763142  136.885556663    40.5837   1   1   0.0000   0.0000   0.0000   0.0000   0.0000   0.0000   0.00    0.0
2025/03/01 07:45:41.000   35.164852735  136.885546048    40.5239   1   1   0.0000   0.0000   0.0000   0.0000   0.0000   0.0000   0.00    0.0
2025/03/01 07:45:42.000   35.164946212  136.885537331    40.5236   1   1   0.0000   0.0000   0.0000   0.0000   0.0000   0.0000   0.00    0.0
2025/03/01 07:45:43.000   35.165042993  136.885531490    40.5120   1   1   0.0000   0.0000   0.0000   0.0000   0.0000   0.0000   0.00    0.0
2025/03/01 07:45:44.000   35.165143333  136.885527034    40.4591   1   1   0.0000   0.0000   0.0000   0.0000   0.0000   0.0000   0.00    0.0
2025/03/01 07:45:45.000   35.165246088  136.885520769    40.4663   1   1   0.0000   0.0000   0.0000   0.0000   0.0000   0.0000   0.00    0.0
2025/03/01 07:45:46.000   35.165351443  136.885511023    40.4996   1   1   0.0000   0.0000   0.0000   0.0000   0.0000   0.0000   0.00    0.0
2025/03/01 07:45:47.000   35.165459338  136.885498712    40.4739   1   1   0.0000   0.0000   0.0000   0.0000   0.0000   0.0000   0.00    0.0
2025/03/01 07:45:48.000   35.165569329  136.885484682    40.5147   1   1   0.0000   0.0000   0.0000   0.0000   0.0000   0.0000   0.00    0.0
2025/03/01 07:45:49.000   35.165679172  136.885469960    40.4306   1   1   0.0000   0.0000   0.0000   0.0000   0.0000   0.0000   0.00    0.0
2025/03/01 07:45:50.000   35.165787151  136.885455224    40.4402   1   1   0.0000   0.0000   0.0000   0.0000   0.0000   0.0000   0.00    0.0
2025/03/01 07:45:51.000   35.165896593  136.885440453    40.3668   1   1   0.0000   0.0000   0.0000   0.0000   0.0000   0.0000   0.00    0.0
2025/03/01 07:45:52.000   35.166006445  136.885425893    40.5549   1   1   0.0000   0.0000   0.0000   0.0000   0.0000   0.0000   0.00    0.0
2025/03/01 07:45:53.000   35.166117442  136.885410475    40.5210   1   1   0.0000   0.0000   0.0000   0.0000   0.0000   0.0000   0.00    0.0
2025/03/01 07:45:54.000   35.166229006  136.885393479    40.4601   1   1   0.0000   0.0000   0.0000   0.0000   0.0000   0.0000   0.00    0.0
2025/03/01 07:45:55.000   35.166340096  136.885377404    40.2487   1   1   0.0000   0.0000   0.0000   0.0000   0.0000   0.0000   0.00    0.0
2025/03/01 07:45:56.000   35.166449115  136.885365356    40.8583   1   1   0.0000   0.0000   0.0000   0.0000   0.0000   0.0000   0.00    0.0
2025/03/01 07:45:57.000   35.166556131  136.885352307    40.9546   1   1   0.0000   0.0000   0.0000   0.0000   0.0000   0.0000   0.00    0.0
2025/03/01 07:45:58.000   35.166656832  136.885334807    40.8841   1   1   0.0000   0.0000   0.0000   0.0000   0.0000   0.0000   0.00    0.0
2025/03/01 07:45:59.000   35.166747488  136.885318791    40.8416   1   1   0.0000   0.0000   0.0000   0.0000   0.0000   0.0000   0.00    0.0
2025/03/01 07:46:00.000   35.166805859  136.885310250    40.7110   1   1   0.0000   0.0000   0.0000   0.0000   0.0000   0.0000   0.00    0.0
2025/03/01 07:46:01.000   35.166834755  136.885305207    40.8457   1   1   0.0000   0.0000   0.0000   0.0000   0.0000   0.0000   0.00    0.0
2025/03/01 07:46:02.000   35.166844793  136.885304926    40.7485   1   1   0.0000   0.0000   0.0000   0.0000   0.0000   0.0000   0.00    0.0
2025/03/01 07:46:03.000   35.166843136  136.885303715    41.2947   1   1   0.0000   0.0000   0.0000   0.0000   0.0000   0.0000   0.00    0.0
2025/03/01 07:46:04.000   35.166844987  136.885306087    40.7634   1   1   0.0000   0.0000   0.0000   0.0000   0.0000   0.0000   0.00    0.0
2025/03/01 07:46:05.000   35.166846037  136.885305746    40.4070   1   1   0.0000   0.0000   0.0000   0.0000   0.0000   0.0000   0.00    0.0
2025/03/01 07:46:06.000   35.166846500  136.885305285    40.2276   1   1   0.0000   0.0000   0.0000   0.0000   0.0000   0.0000   0.00    0.0
2025/03/01 07:46:07.000   35.166847010  136.885304591    40.0058   1   1   0.0000   0.0000   0.0000   0.0000   0.0000   0.0000   0.00    0.0
2025/03/01 07:46:08.000   35.166847255  136.885304271    39.9062   1   1   0.0000   0.0000   0.0000   0.0000   0.0000   0.0000   0.00    0.0
2025/03/01 07:46:09.000   35.166847484  136.885304218    39.8384   1   1   0.0000   0.0000   0.0000   0.0000   0.0000   0.0000   0.00    0.0
2025/03/01 07:46:10.000   35.166846512  136.885305336    40.2104   1   1   0.0000   0.0000   0.0000   0.0000   0.0000   0.0000   0.00    0.0
2025/03/01 07:46:11.000   35.166845879  136.885306265    40.4785   1   1   0.0000   0.0000   0.0000   0.0000   0.0000   0.0000   0.00    0.0
2025/03/01 07:46:12.000   35.166845752  136.885306495    40.5260   1   1   0.0000   0.0000   0.0000   0.0000   0.0000   0.0000   0.00    0.0
2025/03/01 07:46:13.000   35.166846197  136.885305818    40.3517   1   1   0.0000   0.0000   0.0000   0.0000   0.0000   0.0000   0.00    0.0
2025/03/01 07:46:14.000   35.166846195  136.885305804    40.3532   1   1   0.0000   0.0000   0.0000   0.0000   0.0000   0.0000   0.00    0.0
2025/03/01 07:46:15.000   35.166846182  136.885305741    40.3558   1   1   0.0000   0.0000   0.0000   0.0000   0.0000   0.0000   0.00    0.0
2025/03/01 07:46:16.000   35.166846121  136.885305606    40.3713   1   1   0.0000   0.0000   0.0000   0.0000   0.0000   0.0000   0.00    0.0
2025/03/01 07:46:17.000   35.166846161  136.885305659    40.3633   1   1   0.0000   0.0000   0.0000   0.0000   0.0000   0.0000   0.00    0.0
2025/03/01 07:46:18.000   35.166846194  136.885305683    40.3566   1   1   0.0000   0.0000   0.0000   0.0000   0.0000   0.0000   0.00    0.0
2025/03/01 07:46:19.000   35.166846201  136.885305735    40.3456   1   1   0.0000   0.0000   0.0000   0.0000   0.0000   0.0000   0.00    0.0
2025/03/01 07:46:20.000   35.166846139  136.885305612    40.3681   1   1   0.0000   0.0000   0.0000   0.0000   0.0000   0.0000   0.00    0.0
2025/03/01 07:46:21.000   35.166846171  136.885305644    40.3604   1   1   0.0000   0.0000   0.0000   0.0000   0.0000   0.0000   0.00    0.0
2025/03/01 07:46:22.000   35.166846116  136.885305566    40.3588   1   1   0.0000   0.0000   0.0000   0.0000   0.0000   0.0000   0.00    0.0
2025/03/01 07:46:23.000   35.166846127  136.885305595    40.3557   1   1   0.0000   0.0000   0.0000   0.0000   0.0000   0.0000   0.00    0.0
2025/03/01 07:46:24.000   35.166846192  136.885305675    40.3590   1   1   0.0000   0.0000   0.0000   0.0000   0.0000   0.0000   0.00    0.0
2025/03/01 07:46:25.000   35.166846214  136.885305659    40.3529   1   1   0.0000   0.0000   0.0000   0.0000   0.0000   0.0000   0.00    0.0
2025/03/01 07:46:26.000   35.166846149  136.885305558    40.3719   1   1   0.0000   0.0000   0.0000   0.0000   0.0000   0.0000   0.00    0.0
2025/03/01 07:46:27.000   35.166846166  136.885305573    40.3642   1   1   0.0000   0.0000   0.0000   0.0000   0.0000   0.0000   0.00    0.0
2025/03/01 07:46:28.000   35.166846189  136.885305600    40.3604   1   1   0.0000   0.0000   0.0000   0.0000   0.0000   0.0000   0.00    0.0
2025/03/01 07:46:29.000   35.166846143  136.885305547    40.3641   1   1   0.0000   0.0000   0.0000   0.0000   0.0000   0.0000   0.00    0.0
2025/03/01 07:46:30.000   35.166846117  136.885305497    40.3769   1   1   0.0000   0.0000   0.0000   0.0000   0.0000   0.0000   0.00    0.0
2025/03/01 07:46:31.000   35.166846116  136.885305540    40.3655   1   1   0.0000   0.0000   0.0000   0.0000   0.0000   0.0000   0.00    0.0
2025/03/01 07:46:32.000   35.166846141  136.885305552    40.3679   1   1   0.0000   0.0000   0.0000   0.0000   0.0000   0.0000   0.00    0.0
2025/03/01 07:46:33.000   35.166846206  136.885305665    40.3502   1   1   0.0000   0.0000   0.0000   0.0000   0.0000   0.0000   0.00    0.0
2025/03/01 07:46:34.000   35.166846203  136.885305608    40.3606   1   1   0.0000   0.0000   0.0000   0.0000   0.0000   0.0000   0.00    0.0
2025/03/01 07:46:35.000   35.166846196  136.885305627    40.3661   1   1   0.0000   0.0000   0.0000   0.0000   0.0000   0.0000   0.00    0.0
2025/03/01 07:46:36.000   35.166846153  136.885305502    40.3768   1   1   0.0000   0.0000   0.0000   0.0000   0.0000   0.0000   0.00    0.0
2025/03/01 07:46:37.000   35.166846179  136.885305590    40.3627   1   1   0.0000   0.0000   0.0000   0.0000   0.0000   0.0000   0.00    0.0
2025/03/01 07:46:38.000   35.166846183  136.885305583    40.3555   1   1   0.0000   0.0000   0.0000   0.0000   0.0000   0.0000   0.00    0.0
2025/03/01 07:46:39.000   35.166846298  136.885305754    40.3361   1   1   0.0000   0.0000   0.0000   0.0000   0.0000   0.0000   0.00    0.0
2025/03/01 07:46:40.000   35.166846256  136.885305687    40.3543   1   1   0.0000   0.0000   0.0000   0.0000   0.0000   0.0000   0.00    0.0
2025/03/01 07:46:41.000   35.166846233  136.885305656    40.3629   1   1   0.0000   0.0000   0.0000   0.0000   0.0000   0.0000   0.00    0.0
2025/03/01 07:46:42.000   35.166846209  136.885305643    40.3562   1   1   0.0000   0.0000   0.0000   0.0000   0.0000   0.0000   0.00    0.0
2025/03/01 07:46:43.000   35.166846148  136.885305560    40.3692   1   1   0.0000   0.0000   0.0000   0.0000   0.0000   0.0000   0.00    0.0
2025/03/01 07:46:44.000   35.166846126  136.885305506    40.3761   1   1   0.0000   0.0000   0.0000   0.0000   0.0000   0.0000   0.00    0.0
2025/03/01 07:46:45.000   35.166846147  136.885305554    40.3723   1   1   0.0000   0.0000   0.0000   0.0000   0.0000   0.0000   0.00    0.0
2025/03/01 07:46:46.000   35.166846149  136.885305559    40.3832   1   1   0.0000   0.0000   0.0000   0.0000   0.0000   0.0000   0.00    0.0
2025/03/01 07:46:47.000   35.166846247  136.885305646    40.3618   1   1   0.0000   0.0000   0.0000   0.0000   0.0000   0.0000   0.00    0.0
2025/03/01 07:46:48.000   35.166846077  136.885305374    40.3896   1   1   0.0000   0.0000   0.0000   0.0000   0.0000   0.0000   0.00    0.0
2025/03/01 07:46:49.000   35.166846009  136.885305296    40.3968   1   1   0.0000   0.0000   0.0000   0.0000   0.0000   0.0000   0.00    0.0
2025/03/01 07:46:50.000   35.166846128  136.885305480    40.3785   1   1   0.0000   0.0000   0.0000   0.0000   0.0000   0.0000   0.00    0.0
2025/03/01 07:46:51.000   35.166846178  136.885305540    40.3736   1   1   0.0000   0.0000   0.0000   0.0000   0.0000   0.0000   0.00    0.0
2025/03/01 07:46:52.000   35.166846212  136.885305569    40.3628   1   1   0.0000   0.0000   0.0000   0.0000   0.0000   0.0000   0.00    0.0
2025/03/01 07:46:53.000   35.166846183  136.885305528    40.3693   1   1   0.0000   0.0000   0.0000   0.0000   0.0000   0.0000   0.00    0.0
2025/03/01 07:46:54.000   35.166846154  136.885305483    40.3724   1   1   0.0000   0.0000   0.0000   0.0000   0.0000   0.0000   0.00    0.0
2025/03/01 07:46:55.000   35.166846199  136.885305534    40.3669   1   1   0.0000   0.0000   0.0000   0.0000   0.0000   0.0000   0.00    0.0
2025/03/01 07:46:56.000   35.166846193  136.885305591    40.3562   1   1   0.0000   0.0000   0.0000   0.0000   0.0000   0.0000   0.00    0.0
2025/03/01 07:46:57.000   35.166846164  136.885305517    40.3649   1   1   0.0000   0.0000   0.0000   0.0000   0.0000   0.0000   0.00    0.0
2025/03/01 07:46:58.000   35.166846226  136.885305587    40.3592   1   1   0.0000   0.0000   0.0000   0.0000   0.0000   0.0000   0.00    0.0
2025/03/01 07:46:59.000   35.166846229  136.885305600    40.3582   1   1   0.0000   0.0000   0.0000   0.0000   0.0000   0.0000   0.00    0.0
2025/03/01 07:47:00.000   35.166846188  136.885305560    40.3651   1   1   0.0000   0.0000   0.0000   0.0000   0.0000   0.0000   0.00    0.0
2025/03/01 07:47:01.000   35.166846209  136.885305561    40.3600   1   1   0.0000   0.0000   0.0000   0.0000   0.0000   0.0000   0.00    0.0
2025/03/01 07:47:02.000   35.166846234  136.885305647    40.3524   1   1   0.0000   0.0000   0.0000   0.0000   0.0000   0.0000   0.00    0.0
2025/03/01 07:47:03.000   35.166846186  136.885305634    40.3589   1   1   0.0000   0.0000   0.0000   0.0000   0.0000   0.0000   0.00    0.0
2025/03/01 07:47:04.000   35.166846238  136.885305703    40.3485   1   1   0.0000   0.0000   0.0000   0.0000   0.0000   0.0000   0.00    0.0
2025/03/01 07:47:05.000   35.166846138  136.885305503    40.3763   1   1   0.0000   0.0000   0.0000   0.0000   0.0000   0.0000   0.00    0.0
2025/03/01 07:47:06.000   35.166846154  136.885305507    40.3714   1   1   0.0000   0.0000   0.0000   0.0000   0.0000   0.0000   0.00    0.0
2025/03/01 07:47:07.000   35.166846216  136.885305602    40.3602   1   1   0.0000   0.0000   0.0000   0.0000   0.0000   0.0000   0.00    0.0
2025/03/01 07:47:08.000   35.166846135  136.885305468    40.3775   1   1   0.0000   0.0000   0.0000   0.0000   0.0000   0.0000   0.00    0.0
2025/03/01 07:47:09.000   35.166846123  136.885305405    40.3849   1   1   0.0000   0.0000   0.0000   0.0000   0.0000   0.0000   0.00    0.0
2025/03/01 07:47:10.000   35.166846050  136.885305344    40.3904   1   1   0.0000   0.0000   0.0000   0.0000   0.0000   0.0000   0.00    0.0
2025/03/01 07:47:11.000   35.166846098  136.885305440    40.3839   1   1   0.0000   0.0000   0.0000   0.0000   0.0000   0.0000   0.00    0.0
2025/03/01 07:47:12.000   35.166846075  136.885305362    40.3937   1   1   0.0000   0.0000   0.0000   0.0000   0.0000   0.0000   0.00    0.0
2025/03/01 07:47:13.000   35.166846173  136.885305517    40.3755   1   1   0.0000   0.0000   0.0000   0.0000   0.0000   0.0000   0.00    0.0
2025/03/01 07:47:14.000   35.166846180  136.885305512    40.3716   1   1   0.0000   0.0000   0.0000   0.0000   0.0000   0.0000   0.00    0.0
2025/03/01 07:47:15.000   35.166846141  136.885305505    40.3759   1   1   0.0000   0.0000   0.0000   0.0000   0.0000   0.0000   0.00    0.0
2025/03/01 07:47:16.000   35.166846110  136.885305461    40.3820   1   1   0.0000   0.0000   0.0000   0.0000   0.0000   0.0000   0.00    0.0
2025/03/01 07:47:17.000   35.166846071  136.885305352    40.3908   1   1   0.0000   0.0000   0.0000   0.0000   0.0000   0.0000   0.00    0.0
2025/03/01 07:47:18.000   35.166846038  136.885305257    40.3937   1   1   0.0000   0.0000   0.0000   0.0000   0.0000   0.0000   0.00    0.0
2025/03/01 07:47:19.000   35.166846108  136.885305347    40.3797   1   1   0.0000   0.0000   0.0000   0.0000   0.0000   0.0000   0.00    0.0
2025/03/01 07:47:20.000   35.166846180  136.885305507    40.3693   1   1   0.0000   0.0000   0.0000   0.0000   0.0000   0.0000   0.00    0.0
2025/03/01 07:47:21.000   35.166846086  136.885305338    40.3979   1   1   0.0000   0.0000   0.0000   0.0000   0.0000   0.0000   0.00    0.0
2025/03/01 07:47:22.000   35.166846095  136.885305360    40.3871   1   1   0.0000   0.0000   0.0000   0.0000   0.0000   0.0000   0.00    0.0
2025/03/01 07:47:23.000   35.166846051  136.885305323    40.3901   1   1   0.0000   0.0000   0.0000   0.0000   0.0000   0.0000   0.00    0.0
2025/03/01 07:47:24.000   35.166846063  136.885305365    40.3903   1   1   0.0000   0.0000   0.0000   0.0000   0.0000   0.0000   0.00    0.0
2025/03/01 07:47:25.000   35.166846033  136.885305324    40.3879   1   1   0.0000   0.0000   0.0000   0.0000   0.0000   0.0000   0.00    0.0
2025/03/01 07:47:26.000   35.166846046  136.885305297    40.3891   1   1   0.0000   0.0000   0.0000   0.0000   0.0000   0.0000   0.00    0.0
2025/03/01 07:47:27.000   35.166846103  136.885305369    40.3863   1   1   0.0000   0.0000   0.0000   0.0000   0.0000   0.0000   0.00    0.0
2025/03/01 07:47:28.000   35.166846164  136.885305511    40.3715   1   1   0.0000   0.0000   0.0000   0.0000   0.0000   0.0000   0.00    0.0
2025/03/01 07:47:29.000   35.166846113  136.885305396    40.3783   1   1   0.0000   0.0000   0.0000   0.0000   0.0000   0.0000   0.00    0.0
2025/03/01 07:47:30.000   35.166846056  136.885305358    40.3769   1   1   0.0000   0.0000   0.0000   0.0000   0.0000   0.0000   0.00    0.0
2025/03/01 07:47:31.000   35.166845949  136.885305167    40.4043   1   1   0.0000   0.0000   0.0000   0.0000   0.0000   0.0000   0.00    0.0
2025/03/01 07:47:32.000   35.166845939  136.885305147    40.4200   1   1   0.0000   0.0000   0.0000   0.0000   0.0000   0.0000   0.00    0.0
2025/03/01 07:47:33.000   35.166846014  136.885305261    40.4056   1   1   0.0000   0.0000   0.0000   0.0000   0.0000   0.0000   0.00    0.0
2025/03/01 07:47:34.000   35.166846080  136.885305365    40.3868   1   1   0.0000   0.0000   0.0000   0.0000   0.0000   0.0000   0.00    0.0
2025/03/01 07:47:35.000   35.166845958  136.885305217    40.4102   1   1   0.0000   0.0000   0.0000   0.0000   0.0000   0.0000   0.00    0.0
2025/03/01 07:47:36.000   35.166845978  136.885305189    40.4075   1   1   0.0000   0.0000   0.0000   0.0000   0.0000   0.0000   0.00    0.0
2025/03/01 07:47:37.000   35.166845940  136.885305157    40.4139   1   1   0.0000   0.0000   0.0000   0.0000   0.0000   0.0000   0.00    0.0
2025/03/01 07:47:38.000   35.166845996  136.885305219    40.4100   1   1   0.0000   0.0000   0.0000   0.0000   0.0000   0.0000   0.00    0.0
2025/03/01 07:47:39.000   35.166845986  136.885305278    40.4060   1   1   0.0000   0.0000   0.0000   0.0000   0.0000   0.0000   0.00    0.0
2025/03/01 07:47:40.000   35.166845963  136.885305321    40.4060   1   1   0.0000   0.0000   0.0000   0.0000   0.0000   0.0000   0.00    0.0
2025/03/01 07:47:41.000   35.166845945  136.885305171    40.4157   1   1   0.0000   0.0000   0.0000   0.0000   0.0000   0.0000   0.00    0.0
2025/03/01 07:47:42.000   35.166845971  136.885305095    40.4150   1   1   0.0000   0.0000   0.0000   0.0000   0.0000   0.0000   0.00    0.0
2025/03/01 07:47:43.000   35.166849032  136.885304917    40.3982   1   1   0.0000   0.0000   0.0000   0.0000   0.0000   0.0000   0.00    0.0
2025/03/01 07:47:44.000   35.166857840  136.885303838    40.3627   1   1   0.0000   0.0000   0.0000   0.0000   0.0000   0.0000   0.00    0.0
2025/03/01 07:47:45.000   35.166869112  136.885302231    40.3718   1   1   0.0000   0.0000   0.0000   0.0000   0.0000   0.0000   0.00    0.0
2025/03/01 07:47:46.000   35.166882226  136.885300540    40.3712   1   1   0.0000   0.0000   0.0000   0.0000   0.0000   0.0000   0.00    0.0
2025/03/01 07:47:47.000   35.166896632  136.885298449    40.4006   1   1   0.0000   0.0000   0.0000   0.0000   0.0000   0.0000   0.00    0.0
2025/03/01 07:47:48.000   35.166910424  136.885296652    40.4096   1   1   0.0000   0.0000   0.0000   0.0000   0.0000   0.0000   0.00    0.0
2025/03/01 07:47:49.000   35.166921272  136.885295287    40.4197   1   1   0.0000   0.0000   0.0000   0.0000   0.0000   0.0000   0.00    0.0
2025/03/01 07:47:50.000   35.166933777  136.885293686    40.4348   1   1   0.0000   0.0000   0.0000   0.0000   0.0000   0.0000   0.00    0.0
2025/03/01 07:47:51.000   35.166950135  136.885292088    40.4270   1   1   0.0000   0.0000   0.0000   0.0000   0.0000   0.0000   0.00    0.0
2025/03/01 07:47:52.000   35.166972250  136.885289791    40.3785   1   1   0.0000   0.0000   0.0000   0.0000   0.0000   0.0000   0.00    0.0
2025/03/01 07:47:53.000   35.167001339  136.885286497    40.3758   1   1   0.0000   0.0000   0.0000   0.0000   0.0000   0.0000   0.00    0.0
2025/03/01 07:47:54.000   35.167035799  136.885282131    40.4237   1   1   0.0000   0.0000   0.0000   0.0000   0.0000   0.0000   0.00    0.0
2025/03/01 07:47:55.000   35.167076125  136.885276781    40.4600   1   1   0.0000   0.0000   0.0000   0.0000   0.0000   0.0000   0.00    0.0
2025/03/01 07:47:56.000   35.167123526  136.885271041    40.3874   1   1   0.0000   0.0000   0.0000   0.0000   0.0000   0.0000   0.00    0.0
2025/03/01 07:47:57.000   35.167176079  136.885263448    40.4324   1   1   0.0000   0.0000   0.0000   0.0000   0.0000   0.0000   0.00    0.0
2025/03/01 07:47:58.000   35.167233102  136.885255176    40.4547   1   1   0.0000   0.0000   0.0000   0.0000   0.0000   0.0000   0.00    0.0
2025/03/01 07:47:59.000   35.167293429  136.885246653    40.4766   1   1   0.0000   0.0000   0.0000   0.0000   0.0000   0.0000   0.00    0.0
2025/03/01 07:48:00.000   35.167356065  136.885237662    40.5277   1   1   0.0000   0.0000   0.0000   0.0000   0.0000   0.0000   0.00    0.0
2025/03/01 07:48:01.000   35.167420881  136.885228507    40.5123   1   1   0.0000   0.0000   0.0000   0.0000   0.0000   0.0000   0.00    0.0
2025/03/01 07:48:02.000   35.167487252  136.885217043    40.5679   1   1   0.0000   0.0000   0.0000   0.0000   0.0000   0.0000   0.00    0.0
2025/03/01 07:48:03.000   35.167556105  136.885202337    40.5245   1   1   0.0000   0.0000   0.0000   0.0000   0.0000   0.0000   0.00    0.0
2025/03/01 07:48:04.000   35.167626156  136.885183884    40.6210   1   1   0.0000   0.0000   0.0000   0.0000   0.0000   0.0000   0.00    0.0
2025/03/01 07:48:05.000   35.167696986  136.885163641    40.5913   1   1   0.0000   0.0000   0.0000   0.0000   0.0000   0.0000   0.00    0.0
2025/03/01 07:48:06.000   35.167768215  136.885142369    40.5645   1   1   0.0000   0.0000   0.0000   0.0000   0.0000   0.0000   0.00    0.0
2025/03/01 07:48:07.000   35.167840562  136.885120753    40.5740   1   1   0.0000   0.0000   0.0000   0.0000   0.0000   0.0000   0.00    0.0
2025/03/01 07:48:08.000   35.167914099  136.885098615    40.5579   1   1   0.0000   0.0000   0.0000   0.0000   0.0000   0.0000   0.00    0.0
2025/03/01 07:48:09.000   35.167986936  136.885078529    40.0577   1   1   0.0000   0.0000   0.0000   0.0000   0.0000   0.0000   0.00    0.0
2025/03/01 07:48:10.000   35.168055564  136.885056165    40.4515   1   1   0.0000   0.0000   0.0000   0.0000   0.0000   0.0000   0.00    0.0
2025/03/01 07:48:11.000   35.168122182  136.885035277    40.4351   1   1   0.0000   0.0000   0.0000   0.0000   0.0000   0.0000   0.00    0.0
2025/03/01 07:48:12.000   35.168188777  136.885014382    39.9469   1   1   0.0000   0.0000   0.0000   0.0000   0.0000   0.0000   0.00    0.0
2025/03/01 07:48:13.000   35.168252323  136.884994316    40.6251   1   1   0.0000   0.0000   0.0000   0.0000   0.0000   0.0000   0.00    0.0
2025/03/01 07:48:14.000   35.168320701  136.884973155    39.5955   1   1   0.0000   0.0000   0.0000   0.0000   0.0000   0.0000   0.00    0.0
2025/03/01 07:48:15.000   35.168384592  136.884950126    40.1107   1   1   0.0000   0.0000   0.0000   0.0000   0.0000   0.0000   0.00    0.0
2025/03/01 07:48:16.000   35.168453523  136.884925990    39.0773   1   1   0.0000   0.0000   0.0000   0.0000   0.0000   0.0000   0.00    0.0
2025/03/01 07:48:17.000   35.168512476  136.884896485    41.0507   1   1   0.0000   0.0000   0.0000   0.0000   0.0000   0.0000   0.00    0.0
2025/03/01 07:48:18.000   35.168583440  136.884878319    40.5752   1   1   0.0000   0.0000   0.0000   0.0000   0.0000   0.0000   0.00    0.0
2025/03/01 07:48:19.000   35.168654091  136.884865053    41.1535   1   1   0.0000   0.0000   0.0000   0.0000   0.0000   0.0000   0.00    0.0
2025/03/01 07:48:20.000   35.168726653  136.884843034    41.2574   1   1   0.0000   0.0000   0.0000   0.0000   0.0000   0.0000   0.00    0.0
2025/03/01 07:48:21.000   35.168801766  136.884820261    41.2116   1   1   0.0000   0.0000   0.0000   0.0000   0.0000   0.0000   0.00    0.0
2025/03/01 07:48:22.000   35.168872603  136.884782928    41.8590   1   1   0.0000   0.0000   0.0000   0.0000   0.0000   0.0000   0.00    0.0
2025/03/01 07:48:23.000   35.168948186  136.884755598    41.9434   1   1   0.0000   0.0000   0.0000   0.0000   0.0000   0.0000   0.00    0.0
2025/03/01 07:48:24.000   35.169026138  136.884726652    41.8208   1   1   0.0000   0.0000   0.0000   0.0000   0.0000   0.0000   0.00    0.0
2025/03/01 07:48:25.000   35.169106140  136.884693240    41.2328   1   1   0.0000   0.0000   0.0000   0.0000   0.0000   0.0000   0.00    0.0
2025/03/01 07:48:26.000   35.169186208  136.884661358    41.2055   1   1   0.0000   0.0000   0.0000   0.0000   0.0000   0.0000   0.00    0.0
2025/03/01 07:48:27.000   35.169268048  136.884633899    41.0984   1   1   0.0000   0.0000   0.0000   0.0000   0.0000   0.0000   0.00    0.0
2025/03/01 07:48:28.000   35.169352664  136.884624409    40.8492   1   1   0.0000   0.0000   0.0000   0.0000   0.0000   0.0000   0.00    0.0
2025/03/01 07:48:29.000   35.169436974  136.884622298    40.5812   1   1   0.0000   0.0000   0.0000   0.0000   0.0000   0.0000   0.00    0.0
2025/03/01 07:48:30.000   35.169517603  136.884597473    40.9023   1   1   0.0000   0.0000   0.0000   0.0000   0.0000   0.0000   0.00    0.0
2025/03/01 07:48:31.000   35.169600521  136.884567401    40.8118   1   1   0.0000   0.0000   0.0000   0.0000   0.0000   0.0000   0.00    0.0
2025/03/01 07:48:32.000   35.169683224  136.884545775    41.0120   1   1   0.0000   0.0000   0.0000   0.0000   0.0000   0.0000   0.00    0.0
2025/03/01 07:48:33.000   35.169766816  136.884520035    40.6817   1   1   0.0000   0.0000   0.0000   0.0000   0.0000   0.0000   0.00    0.0
2025/03/01 07:48:34.000   35.169848024  136.884494593    40.7147   1   1   0.0000   0.0000   0.0000   0.0000   0.0000   0.0000   0.00    0.0
2025/03/01 07:48:35.000   35.169931894  136.884468806    39.8659   1   1   0.0000   0.0000   0.0000   0.0000   0.0000   0.0000   0.00    0.0
2025/03/01 07:48:36.000   35.170011229  136.884431605    41.1283   1   1   0.0000   0.0000   0.0000   0.0000   0.0000   0.0000   0.00    0.0
2025/03/01 07:48:37.000   35.170094595  136.884408169    41.1986   1   1   0.0000   0.0000   0.0000   0.0000   0.0000   0.0000   0.00    0.0
2025/03/01 07:48:38.000   35.170176712  136.884381626    41.7841   1   1   0.0000   0.0000   0.0000   0.0000   0.0000   0.0000   0.00    0.0
2025/03/01 07:48:39.000   35.170258871  136.884351027    42.3355   1   1   0.0000   0.0000   0.0000   0.0000   0.0000   0.0000   0.00    0.0
2025/03/01 07:48:40.000   35.170348489  136.884327856    40.3486   1   1   0.0000   0.0000   0.0000   0.0000   0.0000   0.0000   0.00    0.0
2025/03/01 07:48:41.000   35.170429680  136.884301377    40.2874   1   1   0.0000   0.0000   0.0000   0.0000   0.0000   0.0000   0.00    0.0
2025/03/01 07:48:42.000   35.170508652  136.884274812    40.2980   1   1   0.0000   0.0000   0.0000   0.0000   0.0000   0.0000   0.00    0.0
2025/03/01 07:48:43.000   35.170585590  136.884245118    40.1619   1   1   0.0000   0.0000   0.0000   0.0000   0.0000   0.0000   0.00    0.0
2025/03/01 07:48:44.000   35.170660707  136.884210838    40.0773   1   1   0.0000   0.0000   0.0000   0.0000   0.0000   0.0000   0.00    0.0
2025/03/01 07:48:45.000   35.170733798  136.884170150    40.0858   1   1   0.0000   0.0000   0.0000   0.0000   0.0000   0.0000   0.00    0.0
2025/03/01 07:48:46.000   35.170802844  136.884123797    40.0611   1   1   0.0000   0.0000   0.0000   0.0000   0.0000   0.0000   0.00    0.0
2025/03/01 07:48:47.000   35.170870508  136.884075782    39.8561   1   1   0.0000   0.0000   0.0000   0.0000   0.0000   0.0000   0.00    0.0
2025/03/01 07:48:48.000   35.170937901  136.884028264    39.7732   1   1   0.0000   0.0000   0.0000   0.0000   0.0000   0.0000   0.00    0.0
2025/03/01 07:48:49.000   35.171006579  136.883982443    39.9608   1   1   0.0000   0.0000   0.0000   0.0000   0.0000   0.0000   0.00    0.0
2025/03/01 07:48:50.000   35.171077529  136.883939314    40.0803   1   1   0.0000   0.0000   0.0000   0.0000   0.0000   0.0000   0.00    0.0
2025/03/01 07:48:51.000   35.171151612  136.883900190    40.0750   1   1   0.0000   0.0000   0.0000   0.0000   0.0000   0.0000   0.00    0.0
2025/03/01 07:48:52.000   35.171226863  136.883861825    40.0961   1   1   0.0000   0.0000   0.0000   0.0000   0.0000   0.0000   0.00    0.0
2025/03/01 07:48:53.000   35.171302975  136.883824802    40.1846   1   1   0.0000   0.0000   0.0000   0.0000   0.0000   0.0000   0.00    0.0
2025/03/01 07:48:54.000   35.171380557  136.883790679    40.2827   1   1   0.0000   0.0000   0.0000   0.0000   0.0000   0.0000   0.00    0.0
2025/03/01 07:48:55.000   35.171460380  136.883759070    40.0902   1   1   0.0000   0.0000   0.0000   0.0000   0.0000   0.0000   0.00    0.0
2025/03/01 07:48:56.000   35.171540708  136.883727456    40.1110   1   1   0.0000   0.0000   0.0000   0.0000   0.0000   0.0000   0.00    0.0
2025/03/01 07:48:57.000   35.171621446  136.883694991    40.1924   1   1   0.0000   0.0000   0.0000   0.0000   0.0000   0.0000   0.00    0.0
2025/03/01 07:48:58.000   35.171701739  136.883658959    40.7574   1   1   0.0000   0.0000   0.0000   0.0000   0.0000   0.0000   0.00    0.0
2025/03/01 07:48:59.000   35.171781405  136.883621915    41.5709   1   1   0.0000   0.0000   0.0000   0.0000   0.0000   0.0000   0.00    0.0
2025/03/01 07:49:00.000   35.171859337  136.883580009    42.4826   1   1   0.0000   0.0000   0.0000   0.0000   0.0000   0.0000   0.00    0.0
2025/03/01 07:49:01.000   35.171936811  136.883535656    42.9357   1   1   0.0000   0.0000   0.0000   0.0000   0.0000   0.0000   0.00    0.0
2025/03/01 07:49:02.000   35.172012738  136.883487233    43.1619   1   1   0.0000   0.0000   0.0000   0.0000   0.0000   0.0000   0.00    0.0
2025/03/01 07:49:03.000   35.172085509  136.883435388    43.8904   1   1   0.0000   0.0000   0.0000   0.0000   0.0000   0.0000   0.00    0.0
2025/03/01 07:49:04.000   35.172157026  136.883375802    43.9178   1   1   0.0000   0.0000   0.0000   0.0000   0.0000   0.0000   0.00    0.0
2025/03/01 07:49:05.000   35.172227891  136.883319435    43.4733   1   1   0.0000   0.0000   0.0000   0.0000   0.0000   0.0000   0.00    0.0
2025/03/01 07:49:06.000   35.172296506  136.883269956    43.1683   1   1   0.0000   0.0000   0.0000   0.0000   0.0000   0.0000   0.00    0.0
2025/03/01 07:49:07.000   35.172353342  136.883234792    43.0935   1   1   0.0000   0.0000   0.0000   0.0000   0.0000   0.0000   0.00    0.0
2025/03/01 07:49:08.000   35.172396452  136.883212495    42.9291   1   1   0.0000   0.0000   0.0000   0.0000   0.0000   0.0000   0.00    0.0
2025/03/01 07:49:09.000   35.172429089  136.883196038    42.7834   1   1   0.0000   0.0000   0.0000   0.0000   0.0000   0.0000   0.00    0.0
2025/03/01 07:49:10.000   35.172464544  136.883178195    42.3344   1   1   0.0000   0.0000   0.0000   0.0000   0.0000   0.0000   0.00    0.0
2025/03/01 07:49:11.000   35.172503871  136.883163280    41.4171   1   1   0.0000   0.0000   0.0000   0.0000   0.0000   0.0000   0.00    0.0
2025/03/01 07:49:12.000   35.172549829  136.883148272    41.8907   1   1   0.0000   0.0000   0.0000   0.0000   0.0000   0.0000   0.00    0.0
2025/03/01 07:49:13.000   35.172599416  136.883140844    43.4981   1   1   0.0000   0.0000   0.0000   0.0000   0.0000   0.0000   0.00    0.0
2025/03/01 07:49:14.000   35.172642368  136.883132005    43.0953   1   1   0.0000   0.0000   0.0000   0.0000   0.0000   0.0000   0.00    0.0
2025/03/01 07:49:15.000   35.172683532  136.883122306    42.6924   1   1   0.0000   0.0000   0.0000   0.0000   0.0000   0.0000   0.00    0.0
2025/03/01 07:49:16.000   35.172723343  136.883097647    42.1541   1   1   0.0000   0.0000   0.0000   0.0000   0.0000   0.0000   0.00    0.0
2025/03/01 07:49:17.000   35.172765031  136.883076569    41.9863   1   1   0.0000   0.0000   0.0000   0.0000   0.0000   0.0000   0.00    0.0
2025/03/01 07:49:18.000   35.172807591  136.883054658    41.8203   1   1   0.0000   0.0000   0.0000   0.0000   0.0000   0.0000   0.00    0.0
2025/03/01 07:49:19.000   35.172848870  136.883032747    41.3914   1   1   0.0000   0.0000   0.0000   0.0000   0.0000   0.0000   0.00    0.0
2025/03/01 07:49:20.000   35.172892882  136.883020111    40.1925   1   1   0.0000   0.0000   0.0000   0.0000   0.0000   0.0000   0.00    0.0
2025/03/01 07:49:21.000   35.172935340  136.882999222    39.7355   1   1   0.0000   0.0000   0.0000   0.0000   0.0000   0.0000   0.00    0.0
2025/03/01 07:49:22.000   35.172983695  136.882978852    39.4353   1   1   0.0000   0.0000   0.0000   0.0000   0.0000   0.0000   0.00    0.0
2025/03/01 07:49:23.000   35.173031965  136.882948914    40.0499   1   1   0.0000   0.0000   0.0000   0.0000   0.0000   0.0000   0.00    0.0
2025/03/01 07:49:24.000   35.173084216  136.882917233    39.7132   1   1   0.0000   0.0000   0.0000   0.0000   0.0000   0.0000   0.00    0.0
2025/03/01 07:49:25.000   35.173137961  136.882885243    39.7482   1   1   0.0000   0.0000   0.0000   0.0000   0.0000   0.0000   0.00    0.0
2025/03/01 07:49:26.000   35.173191296  136.882854100    39.6634   1   1   0.0000   0.0000   0.0000   0.0000   0.0000   0.0000   0.00    0.0
2025/03/01 07:49:27.000   35.173242477  136.882822407    39.5078   1   1   0.0000   0.0000   0.0000   0.0000   0.0000   0.0000   0.00    0.0
2025/03/01 07:49:28.000   35.173295079  136.882795933    39.7682   1   1   0.0000   0.0000   0.0000   0.0000   0.0000   0.0000   0.00    0.0
2025/03/01 07:49:29.000   35.173342034  136.882772148    39.6870   1   1   0.0000   0.0000   0.0000   0.0000   0.0000   0.0000   0.00    0.0
2025/03/01 07:49:30.000   35.173378637  136.882755555    39.9840   1   1   0.0000   0.0000   0.0000   0.0000   0.0000   0.0000   0.00    0.0
2025/03/01 07:49:31.000   35.173420064  136.882718744    43.1533   1   1   0.0000   0.0000   0.0000   0.0000   0.0000   0.0000   0.00    0.0
2025/03/01 07:49:32.000   35.173422255  136.882721078    41.2514   1   1   0.0000   0.0000   0.0000   0.0000   0.0000   0.0000   0.00    0.0
2025/03/01 07:49:33.000   35.173433099  136.882709632    40.9712   1   1   0.0000   0.0000   0.0000   0.0000   0.0000   0.0000   0.00    0.0
2025/03/01 07:49:34.000   35.173435599  136.882697526    41.2781   1   1   0.0000   0.0000   0.0000   0.0000   0.0000   0.0000   0.00    0.0
2025/03/01 07:49:35.000   35.173434907  136.882688882    41.2292   1   1   0.0000   0.0000   0.0000   0.0000   0.0000   0.0000   0.00    0.0
