GPS TOW (s),GPS Week,Latitude (deg),Longitude (deg),Ellipsoid Height (m),ECEF X (m),ECEF Y (m),ECEF Z (m),Roll (deg),Pitch (deg),Heading (deg),East Velocity (m/s),North Velocity (m/s),Up Velocity (m/s)
349740,2267,35.6834118473066,139.765267834802,40.8180000130087,-3959474.90156881,3350132.08660285,3699739.94181147,-1.342,0.262,194.665,0.001,0.003,-0.001
349741,2267,35.6834118371848,139.765267834763,40.8170000109822,-3959474.90144653,3350132.08650403,3699739.94031597,-1.341,0.28,194.667,-0.006,-0.015,-0.016
349742,2267,35.683408697367,139.765266834822,40.8100000116974,-3959474.9937694,3350132.28319031,3699739.65326446,-1.334,0.59,194.664,-0.238,-0.932,0
349743,2267,35.6833930544054,139.765261820632,40.803000013344,-3959475.46912574,3350133.27996624,3699738.23939772,-1.394,0.679,194.877,-0.671,-2.491,-0.017
349744,2267,35.6833640276109,139.765252271771,40.8010000158101,-3959476.34369792,3350135.1522354,3699735.6222616,-1.417,0.755,195.318,-1.033,-3.828,0.001
349745,2267,35.6833250160197,139.765239074431,40.8100000182167,-3959477.5050831,3350137.69981067,3699732.11168476,-1.327,0.722,195.674,-1.34,-4.841,0.02
349746,2267,35.6832783397089,139.765223045695,40.8060000184923,-3959478.87154379,3350140.7566463,3699727.90275816,-1.293,0.695,195.613,-1.557,-5.581,-0.003
349747,2267,35.6832240719486,139.765204679822,40.8090000040829,-3959480.48075932,3350144.29601548,3699723.01374998,-1.117,0.333,194.917,-1.718,-6.501,-0.001
349748,2267,35.6831620558961,139.765185698843,40.7859999639913,-3959482.42070316,3350148.18815786,3699717.41127475,-1.906,0.201,193.377,-1.738,-7.26,-0.042
349749,2267,35.6830941803974,139.765167224732,40.7559998845682,-3959484.67543527,3350152.28654467,3699711.27664191,-1.214,0.528,191.189,-1.535,-7.803,-0.022
349750,2267,35.6830240632822,139.765151453592,40.8019998250529,-3959487.24608328,3350156.33171851,3699704.98431371,-1.568,0.772,189.849,-1.321,-7.732,0.017
349751,2267,35.682955123298,139.765137423787,40.8349997820333,-3959489.85232221,3350160.20052315,3699698.7904837,-1.401,0.666,189.043,-1.251,-7.575,0.037
349752,2267,35.6828876320218,139.765124033316,40.8539998373017,-3959492.41567932,3350163.95723621,3699692.7190443,-0.947,0.86,189.869,-1.28,-7.402,0.032
349753,2267,35.6828188991824,139.765107018325,40.850000041537,-3959494.81417829,3350168.00425763,3699686.52229036,-0.484,0.169,192.833,-1.756,-7.801,-0.111
349754,2267,35.6827455288957,139.765085491608,40.7650001598522,-3959497.12775614,3350172.51442865,3699679.86034214,-1.013,0.269,194.309,-2.072,-8.359,-0.154
349755,2267,35.682667246731,139.765060641355,40.7290002070367,-3959499.52005481,3350177.4853152,3699672.78429456,-1.317,0.256,194.837,-2.343,-9.005,0.053
349756,2267,35.6825843033132,139.765033620239,40.7080002147704,-3959502.02500541,3350182.8089445,3699665.29690138,-1.417,0.312,194.893,-2.482,-9.434,-0.045
349757,2267,35.6824988190592,139.76500599532,40.6850001849234,-3959504.61893123,3350188.27946247,3699657.57934478,-1.346,0.32,194.634,-2.475,-9.47,0.018
349758,2267,35.6824162102648,139.764979745702,40.6560001866892,-3959507.14747431,3350193.53158267,3699650.11742727,-1.326,0.33,194.614,-2.318,-8.858,-0.049
349759,2267,35.6823393552619,139.764955194094,40.6350001972169,-3959509.49597971,3350198.43002578,3699643.17872173,-1.248,0.184,194.696,-2.147,-8.161,-0.102
349760,2267,35.6822673896532,139.764932142281,40.6080002114177,-3959511.68688491,3350203.01727988,3699636.67716078,-1.418,0.248,194.788,-2.019,-7.788,0.016
349761,2267,35.6821993272384,139.764909998232,40.5910002421588,-3959513.74421982,3350207.38387968,3699630.53319803,-0.98,0.425,194.992,-1.988,-7.455,-0.012
349762,2267,35.6821319767016,139.764888081408,40.5630002981052,-3959515.77284093,3350211.6992441,3699624.44697125,-1.515,0.316,195.33,-2.059,-7.433,-0.051
349763,2267,35.6820653512529,139.764865084969,40.5430005053058,-3959517.70746355,3350216.06310097,3699618.43075373,-1.602,0.385,196.577,-2.158,-7.344,0.001
349764,2267,35.6819996871847,139.764840768511,40.5220006331801,-3959519.51677557,3350220.47746424,3699612.50059153,-1.566,0.551,197.309,-2.247,-7.316,-0.038
349765,2267,35.6819328773094,139.764815030839,40.5260006962344,-3959521.31508865,3350225.05105529,3699606.48174172,-1.215,0.407,197.64,-2.321,-7.412,-0.022
349766,2267,35.6818640522176,139.764787748765,40.5370008712634,-3959523.12699109,3350229.81928711,3699600.2853501,-1.297,0.72,198.561,-2.662,-7.953,0.005
349767,2267,35.6817905905242,139.764757185517,40.5380009785295,-3959524.96989693,3350235.00284405,3699593.66524963,-1.075,0.686,199.093,-2.849,-8.288,0.003
349768,2267,35.6817148261347,139.764725099366,40.5500010307878,-3959526.84432954,3350240.3936716,3699586.84403007,-1.298,0.707,199.335,-2.987,-8.547,-0.033
349769,2267,35.6816361328925,139.764691273632,40.5590010816231,-3959528.75987182,3350246.02557349,3699579.75709281,-1.369,0.606,199.558,-3.161,-8.88,-0.017
349770,2267,35.6815545651619,139.764655758939,40.5470010340214,-3959530.70563497,3350251.88333415,3699572.39883756,-0.949,0.542,199.351,-3.266,-9.231,0.015
349771,2267,35.6814696054391,139.764620192195,40.5350007107481,-3959532.81592115,3350257.88648273,3699564.73487249,-0.646,0.417,198.004,-3.145,-9.667,-0.021
349772,2267,35.681380364879,139.76458651344,40.5210002548993,-3959535.24684223,3350263.93705512,3699556.68392319,-0.892,0.151,196.184,-2.932,-10.125,-0.012
349773,2267,35.6812872169005,139.764554764762,40.4829999879003,-3959537.96876787,3350270.00498924,3699548.26681083,-1.228,0.359,195.16,-2.829,-10.525,-0.035
349774,2267,35.6811909607759,139.764523272578,40.4659998826683,-3959540.87225343,3350276.19613911,3699539.58181607,-1.379,0.502,194.767,-2.864,-10.851,0.006
349775,2267,35.6810924969574,139.764491158072,40.4379999488592,-3959543.8415814,3350282.51680585,3699530.69142646,-1.129,0.479,194.994,-2.935,-10.986,0.006
349776,2267,35.6809944266392,139.764458867963,40.4259999487549,-3959546.79110441,3350288.84154811,3699521.84582273,-1.126,0.409,194.999,-2.868,-10.719,-0.008
349777,2267,35.6808998774483,139.764428031485,40.4109998950735,-3959549.64979129,3350294.91706368,3699513.31580125,-1.375,0.265,194.821,-2.705,-10.272,-0.013
349778,2267,35.6808091671102,139.764398774596,40.3989998446777,-3959552.41303279,3350300.72451507,3699505.13349795,-1.481,0.518,194.662,-2.607,-9.957,-0.019
349779,2267,35.6807196429373,139.764370415839,40.3979996498674,-3959555.17699669,3350306.42608152,3699497.06450514,-1.35,0.46,194.074,-2.449,-9.928,0.027
349780,2267,35.6806306573029,139.764343709101,40.3919993983582,-3959558.00784008,3350311.98834138,3699489.04112315,-1.076,0.549,193.348,-2.348,-9.828,0.019
349781,2267,35.6805432381001,139.764318017412,40.412999629043,-3959560.83737931,3350317.42913589,3699481.1746566,-0.889,0.529,193.989,-2.404,-9.545,0.011
349782,2267,35.6804576190687,139.764290392108,40.4290001038462,-3959563.46180404,3350322.92567919,3699473.46750723,-0.564,0.317,195.287,-2.567,-9.49,-0.031
349783,2267,35.6803719012596,139.764261505654,40.3630004068837,-3959565.966503,3350328.47047834,3699465.70361957,-2.25,0.026,196.076,-2.619,-9.427,-0.105
349784,2267,35.6802855095291,139.764229371626,40.3470009984449,-3959568.34558717,3350334.29411034,3699457.90814928,-2.267,0.561,197.599,-3.097,-9.765,0.035
349785,2267,35.6801957130846,139.764194921881,40.3800006406382,-3959570.78783342,3350340.44580358,3699449.83439627,-1.663,0.211,196.708,-3.001,-10.103,-0.043
349786,2267,35.6801035964454,139.764161453934,40.3720004139468,-3959573.37667459,3350346.60511887,3699441.52761027,-1.342,0.704,196.155,-3.025,-10.347,0.034
349787,2267,35.680009268445,139.764128465094,40.3900001905859,-3959576.11888476,3350352.83739981,3699433.03667767,-1.261,0.722,195.626,-2.989,-10.652,0.049
349788,2267,35.6799132151822,139.764095564118,40.3479999965057,-3959578.91424288,3350359.10424111,3699424.355248,-1.093,0.179,195.185,-2.946,-10.655,-0.12
349789,2267,35.679816469888,139.76406396543,40.3079997431487,-3959581.82116319,3350365.31105627,3699415.61260424,-1.345,0.06,194.614,-2.823,-10.724,-0.068
349790,2267,35.6797196994965,139.764033544722,40.2599995182827,-3959584.79322801,3350371.43331003,3699406.86302222,-1.168,0.238,194.128,-2.732,-10.774,0.003
349791,2267,35.6796227884425,139.764003611285,40.2319996058941,-3959587.81312033,3350377.5382579,3699398.11241766,-1.665,0.373,194.309,-2.732,-10.77,-0.013
349792,2267,35.6795256934539,139.763972953351,40.2099998053163,-3959590.80343828,3350383.70410542,3699389.34872484,-2.01,0.592,194.719,-2.829,-10.812,0.031
349793,2267,35.6794283178089,139.763941018263,40.2159999329597,-3959593.75028486,3350389.98463205,3699380.5760578,-1.211,0.495,194.976,-2.906,-10.775,-0.049
349794,2267,35.6793321694702,139.763909165511,40.2490000026301,-3959596.65804045,3350396.22232723,3699371.92974138,-0.977,0.255,195.113,-2.826,-10.484,0.044
349795,2267,35.6792394140515,139.763878663707,40.2070000497624,-3959599.43065393,3350402.18547663,3699363.54546536,-2.116,0.335,195.202,-2.732,-10.227,0.01
349796,2267,35.6791482695649,139.763848395533,40.2010000050068,-3959602.15965452,3350408.08402597,3699355.32736558,-2.454,0.339,195.111,-2.666,-10.021,-0.046
349797,2267,35.6790589134278,139.763819595895,40.174999431707,-3959604.87376472,3350413.79583411,3699347.25877064,-2.544,0.349,194.062,-2.491,-9.846,-0.03
349798,2267,35.678970962249,139.763793701696,40.1569986259565,-3959607.69331255,3350419.25231722,3699339.32145801,-2.068,0.12,192.611,-2.19,-9.716,-0.001
349799,2267,35.6788847449771,139.763771110669,40.1099979579449,-3959610.60236345,3350424.39282457,3699331.52349571,-2.071,0.438,191.429,-1.93,-9.4,-0.011
349800,2267,35.6788016006624,139.763750487081,40.0949980942532,-3959613.49448669,3350429.28570001,3699324.02114787,-1.93,-0.092,191.661,-1.881,-9.079,-0.048
349801,2267,35.6787207612583,139.763729656829,40.0419984711334,-3959616.23708559,3350434.07656819,3699316.70436582,-2.651,0.029,192.301,-1.909,-8.842,-0.045
349802,2267,35.6786430877773,139.763708397673,40.0159987946972,-3959618.8149368,3350438.77890267,3699309.68866185,-2.56,0.311,192.846,-1.892,-8.288,-0.001
349803,2267,35.6785725674748,139.76368797192,40.0289989951998,-3959621.11232472,3350443.14509554,3699303.34039854,-1.283,0.275,193.177,-1.737,-7.349,0.025
349804,2267,35.678510675121,139.76366999541,40.0069992197677,-3959623.10499847,3350446.96300594,3699297.74933611,-1.407,-0.005,193.542,-1.523,-6.367,-0.081
349805,2267,35.678453860165,139.763652984863,39.97099957522,-3959624.89464466,3350450.49457518,3699292.60772022,-1.869,0.418,194.114,-1.57,-6.298,0.028
349806,2267,35.6783976897591,139.763635272104,39.9619999937713,-3959626.62812411,3350454.06189584,3699287.53994026,-1.95,0.261,194.777,-1.626,-6.173,-0.045
349807,2267,35.6783425926444,139.763617103197,39.943000276573,-3959628.27570202,3350457.61062744,3699282.56305817,-1.897,0.049,195.223,-1.621,-5.973,0.02
349808,2267,35.6782926430622,139.763600453333,39.9290002714843,-3959629.76091419,3350460.84183379,3699278.05302673,-2.066,0.021,195.216,-1.392,-5.138,0.019
349809,2267,35.6782501102831,139.763586305728,39.9040001956746,-3959631.01923335,3350463.58431569,3699274.20504067,-2.072,0.273,195.097,-1.197,-4.359,0.018
349810,2267,35.6782132179345,139.763574168245,39.8980001136661,-3959632.12823874,3350465.96207834,3699270.87649656,-2.204,0.819,194.971,-1.042,-3.881,0.008
349811,2267,35.6781793679022,139.763563061491,39.9180000051856,-3959633.1633475,3350468.15508097,3699267.83731394,-2.111,0.68,194.807,-0.972,-3.611,-0.045
349812,2267,35.6781469046976,139.763552596877,39.9389998242259,-3959634.16811525,3350470.24626064,3699264.92370578,-2.086,0.569,194.531,-0.914,-3.526,-0.037
349813,2267,35.6781159523358,139.763543339967,39.9519977848977,-3959635.1639062,3350472.18662501,3699262.14159938,-2.152,1.36,191.47,-0.708,-3.38,0.07
349814,2267,35.6780894491886,139.763538360689,39.9939923901111,-3959636.20802803,3350473.66060442,3699259.77740449,-1.925,1.834,183.34,-0.217,-2.735,0.052
349815,2267,35.6780666742862,139.7635388555,40.0439840862527,-3959637.39304028,3350474.60463153,3699257.753894,-1.568,1.479,170.338,0.337,-2.508,0.051
349816,2267,35.6780459068447,139.763546024511,40.0739745665342,-3959638.85676693,3350474.99300597,3699255.89964706,-1.324,1.21,153.517,1.088,-2.401,0.034
349817,2267,35.678024954785,139.763563500588,40.0909666847438,-3959640.92427745,3350474.6699678,3699254.02117921,-1.184,1.3,135.305,2.326,-2.549,0.026
349818,2267,35.678004085108,139.763596401979,40.1189626017585,-3959643.89656441,3350473.2832332,3699252.15655364,-1.543,0.758,120.196,3.683,-2.173,0.03
349819,2267,35.6779850785705,139.763643363551,40.1149615189061,-3959647.57916412,3350470.83014451,3699250.4411881,-1.87,0.23,112.964,4.83,-2.09,-0.065
349820,2267,35.6779671467483,139.763701346145,40.0919611323625,-3959651.84136263,3350467.56050849,3699248.8116038,-1.834,0.614,108.561,5.786,-1.944,-0.018
349821,2267,35.6779491992096,139.763770171573,40.0709610339254,-3959656.73962734,3350463.54323555,3699247.18176927,-1.694,0.412,106.865,6.529,-1.984,-0.034
349822,2267,35.6779321716383,139.763841260203,40.080960996449,-3959661.74400897,3350459.34735892,3699245.65292992,-1.721,0.58,106.17,6.343,-1.845,0.025
349823,2267,35.6779159566203,139.763910398944,40.1009609820321,-3959666.60042431,3350455.25751268,3699244.20315688,-1.58,0.565,105.883,6.194,-1.774,0.043
349824,2267,35.6779008639741,139.763976276806,40.1129609560594,-3959671.20574474,3350451.34190424,3699242.84987557,-1.552,0.414,105.45,5.642,-1.549,-0.02
349825,2267,35.6778880631108,139.76403425551,40.1319609275088,-3959675.24027389,3350447.88007301,3699241.70723199,-1.63,0.408,104.895,4.835,-1.291,0.022
349826,2267,35.6778775862422,139.76408301098,40.1439609155059,-3959678.61631326,3350444.95483491,3699240.76996426,-1.644,0.399,104.7,3.994,-1.036,0.007
349827,2267,35.6778692373873,139.764122485616,40.1539609106258,-3959681.3432778,3350442.5809881,3699240.02332507,-1.837,0.379,104.628,3.194,-0.834,-0
349828,2267,35.6778622281632,139.764155381966,40.1579609066248,-3959683.61566907,3350440.60261747,3699239.39392564,-1.773,0.4,104.579,2.733,-0.709,0.011
349829,2267,35.6778565690473,139.764181917791,40.1609609043226,-3959685.4488045,3350439.00686006,3699238.88562646,-1.679,0.345,104.523,2.082,-0.546,0.002
349830,2267,35.6778522496295,139.764202265033,40.1629609009251,-3959686.8532533,3350437.78226897,3699238.4974893,-1.628,0.382,104.486,1.61,-0.413,0.013
349831,2267,35.6778489399434,139.764217823543,40.160960899666,-3959687.92531382,3350436.84431982,3699238.19802504,-1.55,0.474,104.466,1.233,-0.321,-0.001
349832,2267,35.6778464404296,139.76422968123,40.1659608967602,-3959688.74528248,3350436.13194102,3699237.97566317,-1.597,0.444,104.435,0.909,-0.231,0.003
349833,2267,35.6778447405548,139.764237790634,40.1679608961567,-3959689.30470332,3350435.64360608,3699237.82362206,-1.587,0.425,104.427,0.549,-0.142,0.003
349834,2267,35.6778436806956,139.764242849963,40.1689608963206,-3959689.65353056,3350435.33878376,3699237.72868152,-1.599,0.495,104.418,0.451,-0.118,0.004
349835,2267,35.677842520805,139.764248459441,40.1709608947858,-3959690.04009006,3350435.00064671,3699237.6253085,-1.612,0.585,104.411,0.643,-0.171,0
349836,2267,35.6778405411019,139.764257968024,40.1739608934149,-3959690.69577293,3350434.42783612,3699237.44863004,-1.634,0.617,104.392,1.063,-0.264,0.006
349837,2267,35.6778373319286,139.764273404068,40.1769608901814,-3959691.7588065,3350433.49677144,3699237.16114097,-1.558,0.924,104.339,2.028,-0.517,0.013
349838,2267,35.6778306524876,139.764305501384,40.1899608876556,-3959693.9737584,3350431.56455228,3699236.56671326,-1.464,0.902,104.303,3.716,-0.948,0.013
349839,2267,35.6778204987085,139.764354079393,40.2099609067664,-3959697.32840827,3350428.64225222,3699235.66323033,-1.237,0.833,104.544,5.031,-1.29,0.026
349840,2267,35.6778076748832,139.76441465731,40.2339609283954,-3959701.51914322,3350425.00434139,3699234.52143219,-1.582,0.9,104.784,5.986,-1.549,0.032
349841,2267,35.6777921658059,139.764486228653,40.2689609853551,-3959706.49219827,3350420.72468296,3699233.14403084,-1.607,0.901,105.339,6.897,-1.901,0.035
349842,2267,35.6777742747851,139.764565273205,40.2929609883577,-3959712.01309765,3350416.02233446,3699231.54553195,-1.244,0.612,105.4,7.377,-2.031,0.017
349843,2267,35.6777558302049,139.764648738816,40.3149609528482,-3959717.81862154,3350411.03652554,3699229.89597454,-1.327,0.541,105.072,7.707,-2.092,0.02
349844,2267,35.677736814403,139.764736069536,40.285960920155,-3959723.84674609,3350405.78070494,3699228.1651887,-0.984,0.141,104.813,8.146,-2.159,-0.032
349845,2267,35.6777171043669,139.764828309703,40.2339609200135,-3959730.18197862,3350400.20252991,3699226.35841774,-1.139,0.283,104.815,8.492,-2.204,-0.039
349846,2267,35.6776964295869,139.764923801625,40.2179609630257,-3959736.77733375,3350394.45882627,3699224.4856912,-1.225,0.259,105.109,8.77,-2.339,0.032
349847,2267,35.6776746299922,139.765021489783,40.2039609560743,-3959743.55791235,3350388.6113912,3699222.51275228,0.584,0.288,105.084,8.87,-2.434,-0.098
349848,2267,35.6776533225618,139.765119278033,40.186960930936,-3959750.31816133,3350382.73487911,3699220.58242141,0.07,-0.116,104.926,8.757,-2.319,-0.161
349849,2267,35.6776325541086,139.765215860897,40.1109609128907,-3959756.94470319,3350376.88817354,3699218.66625728,-0.098,0.166,104.83,8.679,-2.281,-0.049
349850,2267,35.6776123622293,139.765310649561,40.1229609381407,-3959763.4924079,3350371.18752643,3699216.85338245,-0.657,0.391,104.946,8.469,-2.228,0.001
349851,2267,35.6775924975703,139.765402994749,40.1409608731046,-3959769.88477786,3350365.64520846,3699215.07349851,-0.755,0.239,104.613,8.247,-2.13,-0.016
349852,2267,35.6775742405258,139.765491061967,40.1469607111067,-3959775.94012742,3350360.32504246,3699213.43150812,-0.541,0.248,103.773,7.596,-1.871,0.006
349853,2267,35.6775590226025,139.765569659633,40.1579605527222,-3959781.29470592,3350355.53491271,3699212.0663466,-0.162,0.248,102.942,6.718,-1.559,0.014
349854,2267,35.6775457695121,139.765641592032,40.1699604578316,-3959786.16308513,3350351.12381898,3699210.87885663,0.101,0.753,102.442,6.317,-1.388,0.037
349855,2267,35.6775340303793,139.76570996952,40.2149603003636,-3959790.76926084,3350346.91243764,3699209.84706439,-0.456,0.872,101.613,6.102,-1.245,0.05
349856,2267,35.6775231525772,139.76577779631,40.2879602685571,-3959795.31804338,3350342.71779919,3699208.90923324,-0.901,0.974,101.438,6.369,-1.242,0.074
349857,2267,35.6775098033542,139.765852087727,40.3539607189596,-3959800.36258654,3350338.17600084,3699207.74457269,-0.745,1.512,103.582,7.114,-1.691,0.108
349858,2267,35.6774930796988,139.765935124703,40.5029609287158,-3959806.1366859,3350333.21436584,3699206.32418457,-1.133,1.514,104.477,7.862,-1.984,0.134
349859,2267,35.6774742469418,139.766023777707,40.6239609727636,-3959812.32599989,3350327.93805083,3699204.69737422,-0.711,1.258,104.651,8.167,-2.135,0.103
349860,2267,35.6774544757731,139.766116903171,40.7389609925449,-3959818.81946762,3350322.38869918,3699202.98248579,-1.048,1.454,104.724,8.689,-2.25,0.155
349861,2267,35.6774335628568,139.766215226685,40.8619610415772,-3959825.67824299,3350316.53200653,3699201.16935784,-1.49,0.989,104.905,9.085,-2.4,0.07
349862,2267,35.677411247817,139.766317239641,40.9759611310437,-3959832.81643099,3350310.47419702,3699199.22460806,-1.748,1.34,105.213,9.334,-2.505,0.157
349863,2267,35.6773889023779,139.766418658886,41.0929610468447,-3959839.92325489,3350304.46024948,3699197.27886736,-1.73,0.836,104.934,8.956,-2.396,0.076
349864,2267,35.6773685126742,139.766515170475,41.1929608518258,-3959846.63594232,3350298.69480353,3699195.49948022,-2.147,1.154,104.285,8.654,-2.187,0.123
349865,2267,35.6773489622998,139.766611893049,41.2979606604204,-3959853.32259489,3350292.88230465,3699193.79865684,-2.321,1.125,103.651,8.85,-2.158,0.059
349866,2267,35.6773298637925,139.766711123244,41.4129604166374,-3959860.13974674,3350286.88284433,3699192.14439163,-2.35,1.093,102.854,9.069,-2.071,0.084
349867,2267,35.6773119164982,139.766813282164,41.4549598945305,-3959867.02600005,3350280.59454007,3699190.55130882,-1.614,0.431,101.116,9.401,-1.911,-0.053
349868,2267,35.6772961618973,139.766918824687,41.4749592235312,-3959873.98812836,3350273.96918169,3699189.14302079,-0.281,0.984,98.779,9.686,-1.52,0.087
349869,2267,35.6772844266671,139.767024834717,41.5779587654397,-3959880.83049101,3350267.18705135,3699188.14540318,-0.22,1.116,97.077,9.366,-1.137,0.073
349870,2267,35.677273172314,139.767127841376,41.6109592337161,-3959887.43006021,3350260.55565396,3699187.15030175,-0.516,-0.068,98.735,9.215,-1.383,-0.065
349871,2267,35.6772576441513,139.767229213366,41.5099610658363,-3959894.06206897,3350254.14554396,3699185.69185372,-1.04,-0.79,104.188,9.066,-2.203,-0.137
349872,2267,35.6772313411709,139.767330364909,41.2889639772475,-3959901.13905391,3350248.13804032,3699183.1922917,-0.661,-0.781,111.154,9.179,-3.519,-0.259
349873,2267,35.6771961676426,139.767433273105,41.1299652475864,-3959908.79541322,3350242.41239321,3699179.92938989,-1.18,0.572,113.795,9.434,-4.128,0.064
349874,2267,35.6771581548268,139.767537295215,41.1129657011479,-3959916.74522256,3350236.80291369,3699176.49339967,-1.349,0.436,114.678,9.408,-4.267,0.008
349875,2267,35.677118482318,139.767641184103,41.0939661487937,-3959924.76798442,3350231.27094073,3699172.90665402,-0.956,0.103,115.521,9.338,-4.48,-0.095
349876,2267,35.6770773919774,139.767744905459,41.0969665562734,-3959932.86462792,3350225.82132833,3699169.20494876,-0.917,0.779,116.261,9.407,-4.635,0.063
349877,2267,35.6770350596235,139.767849095849,41.1539668058977,-3959941.08353381,3350220.41952115,3699165.42279295,-0.736,0.71,116.701,9.518,-4.744,0.07
349878,2267,35.676991616073,139.767954734476,41.2119668787345,-3959949.44262787,3350214.9645669,3699161.54106637,-0.872,0.94,116.826,9.568,-4.848,0.097
349879,2267,35.6769485581349,139.76805930947,41.2909668339416,-3959957.73349332,3350209.5780047,3699157.70634019,-0.806,0.833,116.753,9.389,-4.727,0.084
349880,2267,35.6769065555421,139.768162131358,41.3499666750431,-3959965.85730316,3350204.25798518,3699153.95506557,-0.838,0.838,116.49,9.197,-4.589,0.056
349881,2267,35.6768656592507,139.768262526753,41.414966811426,-3959973.78829041,3350199.06256213,3699150.30699913,-0.874,0.656,116.713,8.951,-4.497,-0.015
349882,2267,35.6768247798548,139.76836153947,41.4609670192003,-3959981.6258042,3350193.95200864,3699146.64937255,-0.971,0.639,117.043,8.997,-4.532,0.056
349883,2267,35.6767832375835,139.768460374912,41.4509670687839,-3959989.45096297,3350188.8520122,3699142.89933916,0.191,0.359,117.122,8.948,-4.598,-0.085
349884,2267,35.6767413897363,139.768560623577,41.4389672474936,-3959997.37260317,3350183.66604424,3699139.12059597,-0.912,0.299,117.394,9.19,-4.778,0.081
349885,2267,35.6766987345089,139.768662518254,41.3879669010639,-3960005.40617986,3350178.37957454,3699135.2463361,-0.953,0.61,116.879,9.301,-4.713,0.011
349886,2267,35.6766565920615,139.768765279886,41.4439667211846,-3960013.53146533,3350173.06787232,3699131.48069477,-1.208,0.372,116.612,9.263,-4.619,-0.021
349887,2267,35.6766161810664,139.768864742318,41.4769667461514,-3960021.36403244,3350167.89974437,3699127.85769369,-1.528,0.492,116.647,8.713,-4.356,0.019
349888,2267,35.6765773994808,139.768956788256,41.4969684723765,-3960028.67438181,3350163.16927371,3699124.37396899,-1.68,0.458,119.081,7.845,-4.323,0.008
349889,2267,35.6765376456727,139.769038289685,41.5299715520814,-3960035.42426602,3350159.21503141,3699120.81019847,-1.691,0.543,123.194,6.829,-4.467,0.026
349890,2267,35.6764983621008,139.769109661431,41.5379722956568,-3960041.54311369,3350155.92812543,3699117.27422709,-1.397,0.194,124.156,6.159,-4.178,-0.026
349891,2267,35.6764623788082,139.769175946445,41.5269707748666,-3960047.189705,3350152.84488178,3699114.02462688,-0.829,0.783,122.219,5.911,-3.73,0.005
349892,2267,35.6764313669648,139.769239107127,41.5819689147174,-3960052.44894068,3350149.80442241,3699111.26159507,-1.169,0.711,119.808,5.444,-3.105,0.056
349893,2267,35.6764058779206,139.769295764343,41.6059676427394,-3960057.03584607,3350146.96636794,3699108.97825496,-1.289,0.459,118.136,4.818,-2.586,-0.003
349894,2267,35.6763849041777,139.769344446651,41.6299672266468,-3960060.93338298,3350144.49079267,3699107.10188046,-1.176,0.557,117.583,3.98,-2.088,0.005
349895,2267,35.6763679697506,139.769384163524,41.647967081517,-3960064.10342848,3350142.46290528,3699105.58607154,-0.918,0.533,117.391,3.298,-1.71,0.022
349896,2267,35.6763540148567,139.769417271401,41.6609669467434,-3960066.73674226,3350140.76465596,3699104.33589284,-0.821,0.705,117.214,2.769,-1.418,0.02
349897,2267,35.6763422631548,139.769445305452,41.6769669894129,-3960068.96640192,3350139.32658406,3699103.28603829,-0.812,0.635,117.273,2.275,-1.154,-0.004
349898,2267,35.6763329165487,139.769467547364,41.687966901809,-3960070.73547147,3350138.18570181,3699102.45003982,-0.689,0.518,117.155,1.752,-0.87,0.027
349899,2267,35.6763261900153,139.76948366906,41.6909668073058,-3960072.01228748,3350137.35412699,3699101.84552393,-0.584,0.595,117.034,1.192,-0.626,-0.002
349900,2267,35.6763217509577,139.769494296795,41.6979667805135,-3960072.85734092,3350136.80877191,3699101.44951209,-0.455,0.454,117.001,0.717,-0.364,0.006
349901,2267,35.6763194721563,139.76949974391,41.6959667485207,-3960073.28717594,3350136.52647633,3699101.24295625,-0.392,0.595,116.959,0.368,-0.18,0.006
349902,2267,35.6763183523843,139.76950248336,41.6979667432606,-3960073.50391356,3350136.38498364,3699101.1431971,-0.439,0.614,116.951,0.129,-0.063,0
349903,2267,35.6763182124983,139.769502823085,41.6979667404667,-3960073.53068825,3350136.36734936,3699101.13058911,-0.434,0.657,116.947,-0.004,0.002,0.002
349904,2267,35.6763182124983,139.769502823085,41.6979667404667,-3960073.53068825,3350136.36734936,3699101.13058911,-0.433,0.665,116.947,-0.002,0.002,0
349905,2267,35.6763182124698,139.769502823154,41.697966741398,-3960073.53069368,3350136.36734581,3699101.13058654,-0.441,0.671,116.948,0.022,-0.011,-0.001
349906,2267,35.6763182125839,139.769502822879,41.6979667376727,-3960073.53067197,3350136.36736004,3699101.13059682,-0.437,0.669,116.944,0.001,-0.001,-0.002
349907,2267,35.6763182125839,139.769502822879,41.6979667376727,-3960073.53067197,3350136.36736004,3699101.13059682,-0.438,0.67,116.944,0.003,-0.002,-0
349908,2267,35.6763182125839,139.769502822879,41.6979667376727,-3960073.53067197,3350136.36736004,3699101.13059682,-0.44,0.67,116.944,0.006,-0.004,-0.001
349909,2267,35.6763182125839,139.769502822879,41.6979667376727,-3960073.53067197,3350136.36736004,3699101.13059682,-0.438,0.671,116.944,0,-0.001,-0
349910,2267,35.6763182125553,139.769502822948,41.697966738604,-3960073.5306774,3350136.36735648,3699101.13059425,-0.438,0.671,116.945,-0.001,-0,0
349911,2267,35.6763182125553,139.769502822948,41.697966738604,-3960073.5306774,3350136.36735648,3699101.13059425,-0.438,0.67,116.945,-0.002,0,0.001
349912,2267,35.6763182025553,139.769502842948,41.6969667375088,-3960073.53172066,3350136.36586743,3699101.12910974,-0.441,0.712,116.945,0.028,-0.013,-0.009
349913,2267,35.6763171537234,139.769505350129,41.6969667058438,-3960073.73013234,3350136.2364142,3699101.03457801,-0.425,0.846,116.904,0.424,-0.214,-0.001
349914,2267,35.6763137390019,139.76951355733,41.6969665642828,-3960074.37870913,3350135.81187437,3699100.72680751,-0.403,1.178,116.718,1.147,-0.561,-0.002
349915,2267,35.6763052789154,139.76953390754,41.7139665670693,-3960075.99709316,3350134.7678343,3699099.97421045,-0.007,0.872,116.721,2.391,-1.232,0.036
349916,2267,35.6762923123856,139.76956515907,41.7259664703161,-3960078.47241327,3350133.15604817,3699098.81252931,0.478,0.881,116.598,3.244,-1.625,0.026
349917,2267,35.6762763483053,139.769604464515,41.7529663071036,-3960081.57603962,3350131.12074838,3699097.38942528,0.351,0.974,116.387,3.815,-1.85,0.05
349918,2267,35.6762587188431,139.769646766219,41.7929697372019,-3960084.94519631,3350128.95477812,3699095.82380296,-0.341,1.009,120.694,3.626,-2.069,0.042
349919,2267,35.6762359080261,139.769685227786,41.843981671147,-3960088.35261309,3350127.27654095,3699093.79760213,-0.304,0.736,134.32,3.12,-2.869,0.053
349920,2267,35.6762053844111,139.769713843965,41.8620015690103,-3960091.54492965,3350126.58381064,3699091.05700063,-0.81,0.692,154.963,1.818,-3.64,0.001
349921,2267,35.6761691283561,139.769726398458,41.8620217442513,-3960094.07013845,3350127.23133841,3699087.7892322,-0.931,-0.496,176.029,0.416,-4.041,-0.048
349922,2267,35.6761304380997,139.76972340419,41.7830356974155,-3960095.75745489,3350129.01382459,3699084.25598944,-1.449,-0.576,192.505,-0.897,-4.421,-0.123
349923,2267,35.6760872075957,139.769707071617,41.703042184934,-3960096.88854009,3350131.90743008,3699080.3129418,-1.524,-0.27,201.497,-1.931,-4.977,-0.065
349924,2267,35.6760417625078,139.769682991954,41.6400447087362,-3960097.68658767,3350135.43795851,3699076.18020215,-1.158,-0.4,205.397,-2.358,-5.027,-0.004
349925,2267,35.675997215489,139.769655850641,41.5740459822118,-3960098.25938522,3350139.14099011,3699072.12665364,-1.244,0.039,207.474,-2.507,-4.859,-0.088
349926,2267,35.6759537684686,139.769627853239,41.5600462732837,-3960098.76002794,3350142.88450062,3699068.20257265,-0.912,0.272,207.959,-2.551,-4.782,0.048
349927,2267,35.6759113545456,139.769600333633,41.5480460980907,-3960099.23880624,3350146.55285997,3699064.37276972,-0.564,0.191,207.67,-2.44,-4.636,-0.03
349928,2267,35.6758697553453,139.769574155653,41.5350455371663,-3960099.75515713,3350150.0939156,3699060.61581311,-0.514,0.213,206.762,-2.376,-4.756,-0.014
349929,2267,35.6758239440503,139.76954652922,41.5300451014191,-3960100.39985616,3350153.91531462,3699056.48387993,-0.693,0.381,206.075,-2.624,-5.416,-0.003
349930,2267,35.6757723431447,139.769515672648,41.5100452275947,-3960101.13239248,3350158.19406279,3699051.82137302,-0.948,0.464,206.268,-2.928,-6.003,-0.001
349931,2267,35.6757164392156,139.769481824174,41.4820453915745,-3960101.89759532,3350162.85523774,3699046.76636129,-0.911,0.225,206.515,-3.087,-6.241,-0.009
349932,2267,35.6756594527925,139.769447280233,41.4600454689935,-3960102.67932291,3350167.61286794,3699041.61727878,-1.46,0.001,206.629,-3.189,-6.417,-0.02
349933,2267,35.6756006232907,139.769411340537,41.4080454641953,-3960103.45187517,3350172.52825428,3699036.28457778,-1.372,0.111,206.62,-3.294,-6.614,-0.04
349934,2267,35.6755408970523,139.769374782841,41.3830454219133,-3960104.24932767,3350177.53799598,3699030.88679519,-1.005,0.335,206.553,-3.304,-6.665,-0.01
349935,2267,35.6754793136122,139.769337832917,41.3710452243686,-3960105.12364651,3350182.65928346,3699025.32919793,-1.562,0.589,206.259,-3.405,-7.018,0.034
349936,2267,35.675414219667,139.769298372114,41.4050456434488,-3960106.05309073,3350188.12496058,3699019.48201674,-1.945,1.207,206.862,-3.736,-7.394,-0.014
349937,2267,35.6753454767607,139.769255444059,41.5200458029285,-3960107.01028283,3350194.02527805,3699013.35318268,-1.19,1.254,207.092,-3.975,-7.798,0.148
349938,2267,35.6752735048466,139.769210742854,41.6100458297879,-3960108.00779367,3350200.16997975,3699006.91872759,-1.635,0.805,207.126,-4.132,-8.119,0.074
349939,2267,35.6752000826407,139.76916460515,41.64204598777,-3960108.95697098,3350206.44414689,3699000.31972434,-1.684,0.843,207.344,-4.204,-8.127,0.021
349940,2267,35.6751257328576,139.769117668923,41.6910461140797,-3960109.91580847,3350212.82118855,3698993.64702502,-1.541,0.39,207.519,-4.289,-8.228,0.015
349941,2267,35.675052095542,139.769070604235,41.6680462099612,-3960110.78727129,3350219.1395558,3698986.99654594,-1.407,-0.07,207.65,-4.236,-8.098,-0.056
349942,2267,35.6749791849226,139.769024004398,41.5720470109954,-3960111.60472944,3350225.35712164,3698980.36898721,-2.211,-0.524,208.743,-4.275,-7.993,-0.13
349943,2267,35.6749085341643,139.768973079211,41.4110502442345,-3960112.01731201,3350231.74509429,3698973.90720296,-2.49,-0.919,213.397,-4.939,-7.584,-0.175
349944,2267,35.6748413540877,139.768913698244,41.2620535735041,-3960111.77143876,3350238.57875219,3698967.76523158,-1.721,-0.383,218.708,-5.81,-7.324,-0.124
349945,2267,35.6747759872864,139.768844590229,41.1420558895916,-3960110.88519128,3350246.02414682,3698961.80360163,-1.317,-0.204,222.839,-6.6,-7.163,-0.174
349946,2267,35.674710100427,139.768768407742,41.0530563164502,-3960109.63017597,3350253.9965038,3698955.81317069,-1.707,0.077,223.643,-7.098,-7.471,-0.078
349947,2267,35.6746407457247,139.768688729783,41.0040557803586,-3960108.36686616,3350262.37636988,3698949.53349709,-1.407,0.077,222.656,-7.284,-7.914,-0.059
349948,2267,35.6745674668742,139.768607476442,40.9540551556274,-3960107.20464718,3350271.02859317,3698942.89954211,-1.146,0.198,221.56,-7.335,-8.295,-0.075
349949,2267,35.6744920420927,139.768526954211,40.9340547155589,-3960106.20976826,3350279.73570551,3698936.08965866,-1.406,0.397,220.816,-7.216,-8.398,-0.022
349950,2267,35.6744163204689,139.768447773528,40.9560544798151,-3960105.33402212,3350288.38453436,3698929.27750738,-1.588,0.46,220.431,-7.156,-8.412,0.031
349951,2267,35.6743403601481,139.768369093596,40.9730543540791,-3960104.49622406,3350297.00610331,3698922.44091944,-1.656,0.452,220.229,-7.121,-8.435,0.003
349952,2267,35.6742641879778,139.768290701688,40.996054250747,-3960103.68943083,3350305.61976486,3698915.58872953,-1.61,0.534,220.066,-7.09,-8.471,0.037
349953,2267,35.6741880449092,139.768212748812,41.004054156132,-3960102.89754622,3350314.19399361,3698908.73040851,-1.651,0.373,219.922,-7.029,-8.406,-0.002
349954,2267,35.6741128976532,139.768135330573,40.9980545425788,-3960102.07902735,3350322.68230572,3698901.95367232,-1.398,0.567,220.489,-7.055,-8.271,0.105
349955,2267,35.6740390571176,139.768057558255,40.9790549818426,-3960101.16716936,3350331.13365749,3698895.28712726,-1.795,1.032,221.13,-7.186,-8.224,0.321
349956,2267,35.6739652908114,139.767978791487,41.0410550748929,-3960100.24370638,3350339.69313752,3698888.67450342,-1.728,0.756,221.263,-7.212,-8.232,0.074
349957,2267,35.6738906266426,139.767898746994,41.0850551389158,-3960099.27869585,3350348.36900718,3698881.9704491,-1.925,0.704,221.351,-7.266,-8.31,0.047
349958,2267,35.6738157692792,139.767817869832,41.1610551010817,-3960098.29436093,3350357.12729029,3698875.26763661,-0.805,-0.031,221.295,-7.318,-8.379,0.03
349959,2267,35.6737399974756,139.767737499286,41.1080548288301,-3960097.30479533,3350365.82108749,3698868.40716723,-1.683,0.438,220.911,-7.31,-8.425,0.003
349960,2267,35.673663388803,139.767656991263,41.1250546574593,-3960096.39191874,3350374.59608722,3698861.51208354,-1.632,0.479,220.673,-7.325,-8.516,0.031
349961,2267,35.6735872593585,139.767576981278,41.1340548079461,-3960095.4795073,3350383.312437,3698854.65552263,-1.775,0.406,220.871,-7.153,-8.282,-0.003
349962,2267,35.673514346208,139.767500098521,41.1400547027588,-3960094.58920127,3350391.67665176,3698848.08710167,-1.712,0.41,220.727,-6.726,-7.856,0.073
349963,2267,35.6734467799207,139.767429192431,41.1860546441749,-3960093.80904949,3350399.42530925,3698842.0239337,-1.573,0.301,220.649,-6.046,-7.057,0.02
349964,2267,35.6733876177632,139.767366979578,41.1970548471436,-3960093.10037692,3350406.20352861,3698836.69784547,-1.5,0.369,220.904,-5.229,-6.05,0.018
349965,2267,35.6733374230966,139.767313763918,41.2130550937727,-3960092.4779422,3350411.9877455,3698832.18294298,-1.71,0.12,221.213,-4.411,-5.078,-0.025
349966,2267,35.6732957394488,139.767269169995,41.2240551579744,-3960091.93614201,3350416.81774043,3698828.43225242,-1.697,0.278,221.29,-3.743,-4.306,-0.005
349967,2267,35.6732587177759,139.767229798929,41.2260550176725,-3960091.46387766,3350421.08719318,3698825.09651314,-1.862,0.381,221.114,-3.397,-3.969,0.015
349968,2267,35.6732243224061,139.767193424492,41.2470547705889,-3960091.04889103,3350425.0497394,3698822.00857128,-1.882,0.227,220.806,-3.182,-3.648,0.026
349969,2267,35.673192806148,139.767160408958,41.2470545368269,-3960090.67507274,3350428.648787,3698819.16788736,-1.806,0.432,220.518,-2.903,-3.354,0.018
349970,2267,35.6731634676274,139.767130040505,41.2620545132086,-3960090.35777136,3350431.98173565,3698816.532238,-2.387,0.229,220.487,-2.616,-3.104,0.05
349971,2267,35.673138350832,139.767103833853,41.2730544563383,-3960090.07281328,3350434.84850165,3698814.27477597,-2.042,0.531,220.42,-2.193,-2.469,0.138
349972,2267,35.6731181988285,139.767082851268,41.2880546683446,-3960089.8505737,3350437.14880842,3698812.46714269,-1.859,0.46,220.671,-1.748,-2.066,0.014
349973,2267,35.6731010193437,139.767064921243,41.2980548357591,-3960089.65690194,3350439.11128161,3698810.92451824,-1.864,0.43,220.87,-1.502,-1.748,-0.004
349974,2267,35.6730865033525,139.767049664875,41.3030549408868,-3960089.48490637,3350440.77502467,3698809.61904909,-1.882,0.527,220.996,-1.261,-1.467,0.007
349975,2267,35.6730749216419,139.767037463051,41.3110549729317,-3960089.34844586,3350442.10659277,3698808.57980779,-1.864,0.553,221.032,-0.905,-1.049,0.005
349976,2267,35.6730679812138,139.767030212594,41.3170549813658,-3960089.27101938,3350442.90092169,3698807.95773772,-1.894,0.594,221.041,-0.426,-0.498,0.006
349977,2267,35.6730657019255,139.767027853353,41.3220549682155,-3960089.24874922,3350443.16186372,3698807.75521196,-1.916,0.543,221.026,-0.008,-0.019,0.002
349978,2267,35.6730657020679,139.767027853505,41.3220549663529,-3960089.24875106,3350443.16184727,3698807.7552248,-1.903,0.668,221.023,-0,-0.005,-0
349979,2267,35.6730657020679,139.767027853505,41.3220549663529,-3960089.24875106,3350443.16184727,3698807.7552248,-1.904,0.67,221.023,0.003,-0.003,0.001
349980,2267,35.6730657020679,139.767027853505,41.3220549663529,-3960089.24875106,3350443.16184727,3698807.7552248,-1.897,0.667,221.023,0.002,-0.001,0.004
349981,2267,35.6730657020679,139.767027853505,41.3220549663529,-3960089.24875106,3350443.16184727,3698807.7552248,-1.903,0.669,221.023,0,-0.003,0
349982,2267,35.6730657020679,139.767027853505,41.3220549663529,-3960089.24875106,3350443.16184727,3698807.7552248,-1.903,0.668,221.023,0.003,0,0.001
349983,2267,35.6730657021153,139.767027853556,41.3220549654216,-3960089.24875168,3350443.16184179,3698807.75522907,-1.896,0.669,221.022,0.001,0.001,0.002
349984,2267,35.6730657021153,139.767027853556,41.3220549654216,-3960089.24875168,3350443.16184179,3698807.75522907,-1.899,0.668,221.022,-0.002,-0.002,-0.001
349985,2267,35.6730657021153,139.767027853556,41.3220549654216,-3960089.24875168,3350443.16184179,3698807.75522907,-1.895,0.669,221.022,0.004,0,0.002
349986,2267,35.6730657021153,139.767027853556,41.3220549654216,-3960089.24875168,3350443.16184179,3698807.75522907,-1.894,0.671,221.022,0,-0.003,0.003
349987,2267,35.6730657021153,139.767027853556,41.3220549654216,-3960089.24875168,3350443.16184179,3698807.75522907,-1.897,0.668,221.022,-0.002,-0.002,-0
349988,2267,35.6730657021153,139.767027853556,41.3220549654216,-3960089.24875168,3350443.16184179,3698807.75522907,-1.896,0.668,221.022,0.003,0.001,0.002
349989,2267,35.6730657021153,139.767027853556,41.3220549654216,-3960089.24875168,3350443.16184179,3698807.75522907,-1.897,0.669,221.022,0.001,0.001,0.002
349990,2267,35.6730657021153,139.767027853556,41.3220549654216,-3960089.24875168,3350443.16184179,3698807.75522907,-1.896,0.669,221.022,-0.001,-0,0
