% program   : RTKPOST demo5 b34k
% inp file  : C:\Users\Taro\Dropbox\github\ge-gnss-visibility\data\kinematic\rover.obs
% inp file  : C:\Users\Taro\Dropbox\github\ge-gnss-visibility\data\kinematic\rover.nav
% obs start : 2023/06/22 01:09:00.0 GPST (week2267 349740.0s)
% obs end   : 2023/06/22 01:13:10.0 GPST (week2267 349990.0s)
% pos mode  : Single
% elev mask : 15.0 deg
% ionos opt : Broadcast
% tropo opt : Saastamoinen
% ephemeris : Broadcast
% navi sys  : GPS GLONASS Galileo QZSS BDS
%
% (lat/lon/height=WGS84/ellipsoidal,Q=1:fix,2:float,3:sbas,4:dgps,5:single,6:ppp,ns=# of satellites)
%  GPST                  latitude(deg) longitude(deg)  height(m)   Q  ns   sdn(m)   sde(m)   sdu(m)  sdne(m)  sdeu(m)  sdun(m) age(s)  ratio
2023/06/22 01:09:00.000   35.683899126  139.765580710   -59.3096   5  14   6.5000  10.8379  18.6150   5.6466  -6.7113 -10.0729   0.00    0.0
2023/06/22 01:09:01.000   35.683596673  139.764714884     4.7733   5  16   4.2537   6.8186  14.9175  -2.5248   6.0369  -6.8680   0.00    0.0
2023/06/22 01:09:02.000   35.683804919  139.765450318   -35.8537   5  14   4.8240   9.3966  15.4112   2.8871   3.3747  -7.4819   0.00    0.0
2023/06/22 01:09:03.000   35.683508486  139.765213339    49.7576   5  16   4.0830   8.6237  14.8782  -0.3583   5.8048  -6.4394   0.00    0.0
2023/06/22 01:09:04.000   35.683366050  139.765365140    41.7783   5  13   9.6600  12.1816  27.6671   8.4230 -12.7094 -15.6337   0.00    0.0
2023/06/22 01:09:05.000   35.683301499  139.765562561    69.9499   5  16   6.3307   5.7427  17.8569   1.3391   2.7448  -9.7644   0.00    0.0
2023/06/22 01:09:06.000   35.683272107  139.765135964    54.0376   5  14   5.0910   9.8312  15.7747   1.8878   4.6236  -7.8401   0.00    0.0
2023/06/22 01:09:07.000   35.682789701  139.764884249   168.8608   5  19   3.9236   6.7053  13.2069   1.9144   4.7957  -5.8586   0.00    0.0
2023/06/22 01:09:08.000   35.682867077  139.764868448   117.4624   5  20   3.7493   4.3410  11.6364   1.0345   2.5919  -5.4833   0.00    0.0
2023/06/22 01:09:09.000   35.682788377  139.764924915   112.2172   5  22   4.0751   3.5406  11.6324   1.5407   2.1926  -5.8360   0.00    0.0
2023/06/22 01:09:10.000   35.682778759  139.764927343   100.9475   5  21   4.2543   4.0053  13.7578   0.2880   4.3090  -6.5601   0.00    0.0
2023/06/22 01:09:11.000   35.682779949  139.765045237    90.4004   5  23   3.5474   3.8142  11.7211   1.1117   3.8264  -5.1126   0.00    0.0
2023/06/22 01:09:12.000   35.682793507  139.765063067    66.0451   5  24   2.9272   3.7153  10.0141  -0.7046   4.4549  -3.7220   0.00    0.0
2023/06/22 01:09:13.000   35.682800139  139.765052592    48.2195   5  21   3.8316   3.9200  11.9471   1.4761   3.6033  -5.4664   0.00    0.0
2023/06/22 01:09:14.000   35.682707614  139.765001447    50.0492   5  21   3.8314   3.9199  11.9469   1.4755   3.6036  -5.4662   0.00    0.0
2023/06/22 01:09:15.000   35.682697253  139.765034285    36.9789   5  20   4.1427   4.0883  12.1425   2.0014   3.2349  -5.7707   0.00    0.0
2023/06/22 01:09:16.000   35.682571497  139.764939212    40.5167   5  20   3.7687   4.5403  12.2342   0.9241   4.4962  -5.4899   0.00    0.0
2023/06/22 01:09:17.000   35.682401482  139.764917889    65.2817   5  20   3.8566   5.1013  13.3808  -1.7685   5.9586  -6.0345   0.00    0.0
2023/06/22 01:09:18.000   35.682426735  139.764909889    42.7386   5  19   4.1215   5.1019  13.7133  -1.7385   5.9398  -6.3860   0.00    0.0
2023/06/22 01:09:19.000   35.682350777  139.764879352    41.7648   5  15   5.6967   6.3269  16.8774  -0.5496   5.1366  -8.7838   0.00    0.0
2023/06/22 01:09:20.000   35.682271439  139.764841746    43.2856   5  15   5.6964   6.3266  16.8767  -0.5477   5.1349  -8.7834   0.00    0.0
2023/06/22 01:09:21.000   35.682205979  139.764857579    51.0872   5  15   5.2441   6.4631  14.9385  -3.7934   5.8502  -6.6620   0.00    0.0
2023/06/22 01:09:22.000   35.682135989  139.764876874    42.7377   5  14   4.4992   5.0980  13.9336  -1.6817   2.7732  -5.0599   0.00    0.0
2023/06/22 01:09:23.000   35.682076776  139.764818328    42.4579   5  17   4.4788   4.5907  11.8823  -1.7864   3.6330  -5.2712   0.00    0.0
2023/06/22 01:09:24.000   35.682015971  139.764792598    41.1824   5  17   4.4785   4.5909  11.8819  -1.7868   3.6331  -5.2704   0.00    0.0
2023/06/22 01:09:25.000   35.681842571  139.764700589    68.0061   5  18   4.1147   4.4623  11.2681  -2.2588   4.1556  -4.5943   0.00    0.0
2023/06/22 01:09:26.000   35.681734175  139.764847925    46.9824   5  21   3.0568   3.4035  10.3116  -1.4752   3.9560  -3.6718   0.00    0.0
2023/06/22 01:09:27.000   35.681803960  139.764734206    43.3514   5  24   3.0792   3.2863   9.2369  -1.6573   4.0298  -3.6458   0.00    0.0
2023/06/22 01:09:28.000   35.681726595  139.764712120    43.9892   5  24   2.7902   3.1278   9.4796  -1.0498   3.9329  -3.1326   0.00    0.0
2023/06/22 01:09:29.000   35.681115958  139.765935676   404.3628   5  27   2.5608   2.5949   7.5792   0.3996   2.3328  -2.6246   0.00    0.0
2023/06/22 01:09:30.000   35.681571235  139.764634185    41.4527   5  25   2.7026   3.5791  10.4579  -1.3163   4.8109  -3.5548   0.00    0.0
2023/06/22 01:09:31.000   35.681488691  139.764612037    41.5378   5  24   2.7870   2.7864   7.0671   0.9210   1.9153  -2.0521   0.00    0.0
2023/06/22 01:09:32.000   35.681581831  139.764542887    35.5206   5  26   2.6162   2.7804   8.0134   1.0214   2.3889  -2.3671   0.00    0.0
2023/06/22 01:09:33.000   35.681321392  139.764517722    48.8007   5  24   3.2161   2.9662   7.9239   1.6278   2.1580  -2.9722   0.00    0.0
2023/06/22 01:09:34.000   35.681218327  139.764493190    42.4202   5  21   3.3971   4.4239  10.3151   0.9821   4.8423  -3.8162   0.00    0.0
2023/06/22 01:09:35.000   35.681117053  139.764472130    39.2709   5  20   3.5588   5.3765  12.3418  -1.5081   6.6447  -4.6633   0.00    0.0
2023/06/22 01:09:36.000   35.681017835  139.764451618    39.4324   5  19   3.5936   5.5029  12.3571  -1.6906   6.7012  -4.6969   0.00    0.0
2023/06/22 01:09:37.000   35.680932748  139.764417794    38.1769   5  15   5.8492   6.5565  13.9768  -2.8654   7.3350  -7.2069   0.00    0.0
2023/06/22 01:09:38.000   35.680848895  139.764389206    36.7143   5  16   5.4090   6.3047  13.7837  -3.4952   7.6125  -6.8408   0.00    0.0
2023/06/22 01:09:39.000   35.680745418  139.764372112    40.9200   5  13   7.7879   7.5254  16.4398  -5.6774   9.3392  -8.1953   0.00    0.0
2023/06/22 01:09:40.000   35.680657536  139.764347585    40.4259   5  12   8.2237   7.8450  17.0529  -6.1717   9.8622  -8.8968   0.00    0.0
2023/06/22 01:09:41.000   35.680566525  139.764357401    39.7363   5  15   6.7391   6.9358  16.3892  -5.6566   9.4006  -7.9209   0.00    0.0
2023/06/22 01:09:42.000   35.680484901  139.764261548    34.1448   5  18   5.5640   3.9675  11.5822  -3.4172   5.4963  -6.3773   0.00    0.0
2023/06/22 01:09:43.000   35.680394105  139.764231611    40.1702   5  18   6.1028   5.5207  14.9025  -4.9894   8.1490  -8.0347   0.00    0.0
2023/06/22 01:09:44.000   35.680298825  139.764214832    42.2173   5  18   6.7803   5.5660  14.7340  -5.2562   8.1797  -8.5537   0.00    0.0
2023/06/22 01:09:45.000   35.680219809  139.764180368    39.3286   5  17   6.3687   6.0053  14.2368  -5.3537   7.9541  -7.8708   0.00    0.0
2023/06/22 01:09:46.000   35.680077993  139.764173708    49.5794   5  13  11.7777   7.1078  31.0257  -6.0398   8.2664 -16.7605   0.00    0.0
2023/06/22 01:09:47.000   35.680093634  139.764004181    24.2483   5   9  13.6829  17.7568  42.9080 -10.5160  17.4266 -16.8367   0.00    0.0
2023/06/22 01:09:48.000   35.679815787  139.764402881   104.0888   5  14   5.4456   6.7025  17.7099  -2.6768  -3.9075  -5.2996   0.00    0.0
2023/06/22 01:09:49.000   35.679690692  139.764526036   113.8071   5  12  10.7632   6.8211  18.7449  -5.0931  -8.5032   6.2038   0.00    0.0
2023/06/22 01:09:51.000   35.679657379  139.763932084    41.0386   5   9  15.6027  19.3527  72.4899  -6.1307 -17.2875 -26.9082   0.00    0.0
2023/06/22 01:09:52.000   35.679480767  139.764574895    44.4912   5  13  14.5662   8.4469  37.5498   2.2377  -5.7707 -22.7307   0.00    0.0
2023/06/22 01:09:53.000   35.679581483  139.764392665    -3.0426   5  13   8.6365   8.4295  27.1803   5.7095 -10.2474 -14.4427   0.00    0.0
2023/06/22 01:09:54.000   35.679357050  139.763952049    35.8781   5  13   8.6324   8.4252  27.1663   5.7019 -10.2340 -14.4347   0.00    0.0
2023/06/22 01:09:55.000   35.679325436  139.763796267    43.2559   5  15   6.2511   9.3878  17.8650   6.8574 -11.3755  -9.5008   0.00    0.0
2023/06/22 01:09:56.000   35.679167243  139.763864626    38.7446   5  14  10.7715  18.2831  32.8956  13.3880 -23.5929 -18.2674   0.00    0.0
2023/06/22 01:09:57.000   35.679451130  139.764356044   -68.9650   5  12  10.5181  23.3580  33.7052  14.0805 -23.4292 -18.2027   0.00    0.0
2023/06/22 01:09:58.000   35.678962438  139.763735384    48.7619   5  12   9.7713  15.5229  34.6963  10.1687 -19.8762 -17.8040   0.00    0.0
2023/06/22 01:09:59.000   35.678895250  139.763727978    41.3906   5  11  13.3805  14.9956  39.7053  11.9831 -20.9237 -22.5482   0.00    0.0
2023/06/22 01:10:00.000   35.679192285  139.763065486    41.2209   5  11   8.7811   9.6975  30.1853   6.7132 -13.7441 -14.4426   0.00    0.0
2023/06/22 01:10:01.000   35.678409026  139.763531068    95.3548   5  10   6.0337   7.2868  20.2267  -3.0130   2.9596  -9.3243   0.00    0.0
2023/06/22 01:10:02.000   35.679608109  139.764398431  -170.9035   5  11   9.7119  13.8421  30.5008   9.3119 -16.5981 -15.8284   0.00    0.0
2023/06/22 01:10:03.000   35.679391363  139.764144219  -116.9867   5  12   8.9310   9.9742  24.5068   7.0811 -10.0626 -13.4644   0.00    0.0
2023/06/22 01:10:04.000   35.678630706  139.763699885    11.4797   5  14   8.3181   7.3232  22.5689   5.8336  -9.3280 -12.4754   0.00    0.0
2023/06/22 01:10:05.000   35.678282209  139.763013443   154.1249   5  15   6.7825   5.0218  17.0805   2.8923  -2.8967  -9.1976   0.00    0.0
2023/06/22 01:10:06.000   35.678182454  139.763222910   109.7482   5  16   5.6781   5.0148  16.9469   2.7206  -2.7995  -8.7590   0.00    0.0
2023/06/22 01:10:07.000   35.678309598  139.763482987    37.8780   5  16   5.6684   4.5703  17.9022   2.9055  -2.8840  -8.8797   0.00    0.0
2023/06/22 01:10:08.000   35.678414614  139.763518263    18.5877   5  16   6.2754   4.4965  18.0074   2.7780  -2.8241  -9.1728   0.00    0.0
2023/06/22 01:10:09.000   35.678315537  139.763492470    13.7979   5  15   4.9545   4.7417  17.2373  -0.6875   4.2184  -7.5768   0.00    0.0
2023/06/22 01:10:10.000   35.678284612  139.763521086    29.7442   5  18   6.5122   4.0552  16.9728  -1.1285   2.2913  -9.6542   0.00    0.0
2023/06/22 01:10:11.000   35.678156315  139.763516756    44.6473   5  20   4.4746   3.9927  14.1654   1.4384  -1.1307  -7.0354   0.00    0.0
2023/06/22 01:10:12.000   35.678172065  139.763515094    42.6348   5  20   4.2408   3.9267  13.4996   1.8168  -2.0889  -6.5096   0.00    0.0
2023/06/22 01:10:13.000   35.678056542  139.763494182    50.3808   5  21   4.2716   3.7056  12.5773  -0.7943   3.0954  -6.3506   0.00    0.0
2023/06/22 01:10:14.000   35.678052763  139.763496927    51.6162   5  19   4.2748   3.9305  14.4623  -0.6601   4.3397  -6.2579   0.00    0.0
2023/06/22 01:10:15.000   35.678018935  139.763406977    69.1841   5  18   4.7298   4.1509  14.3341   1.6680  -0.4229  -7.1535   0.00    0.0
2023/06/22 01:10:16.000   35.678055063  139.763522614    45.5306   5  18   5.0352   4.7328  16.1409   2.5902  -4.4208  -8.1152   0.00    0.0
2023/06/22 01:10:17.000   35.678039120  139.763553234    40.5425   5  20   4.3916   4.0455  13.1008   1.0119   1.9019  -6.6383   0.00    0.0
2023/06/22 01:10:18.000   35.678016802  139.763583918    43.3081   5  17   4.9224   4.2356  14.5741   1.8156   0.8469  -7.3835   0.00    0.0
2023/06/22 01:10:19.000   35.678005545  139.763639704    39.2226   5  15   4.9461   4.3146  14.9731   1.8705   1.6556  -7.2715   0.00    0.0
2023/06/22 01:10:20.000   35.677979766  139.763708047    39.9792   5  13   5.4527   5.1763  16.9971  -1.2658   4.5312  -7.5892   0.00    0.0
2023/06/22 01:10:21.000   35.677948423  139.763764644    42.8620   5  12   8.0461   8.7513  39.6657   6.3198 -14.0055 -14.9713   0.00    0.0
2023/06/22 01:10:22.000   35.677862996  139.763796694   118.3836   5   9  18.4629  11.2413 124.3584  12.3803 -31.4136 -46.6840   0.00    0.0
2023/06/22 01:10:23.000   35.677999565  139.763932877    64.8995   5  14   5.8934   5.6960  17.8558   2.1006   6.0121  -6.6328   0.00    0.0
2023/06/22 01:10:24.000   35.677876782  139.763979058    97.2530   5   8  18.8024  12.8353 126.3954  13.2573 -28.9185 -45.6584   0.00    0.0
2023/06/22 01:10:25.000   35.678135766  139.764236935    92.9441   5  14   6.5471   5.8481  19.1865   3.1579   8.1788  -3.8347   0.00    0.0
2023/06/22 01:10:26.000   35.677931715  139.764135258    62.8026   5  11   7.3681   8.3313  27.5391   4.7233  13.4880   3.9883   0.00    0.0
2023/06/22 01:10:27.000   35.677923301  139.764152750    51.6738   5  14   5.6068   6.2876  19.7530   3.9626   8.8404  -2.8125   0.00    0.0
2023/06/22 01:10:28.000   35.678039344  139.764349547    69.2191   5  16   4.9020   5.0787  17.2556   2.3787   6.5576  -5.7610   0.00    0.0
2023/06/22 01:10:29.000   35.677903421  139.764204208    46.4363   5  14   5.6066   6.2864  19.7487   3.9614   8.8385  -2.8129   0.00    0.0
2023/06/22 01:10:30.000   35.678207499  139.764624461   131.0691   5  16   4.2802   4.4328  15.8259   1.9972   5.1583  -5.6708   0.00    0.0
2023/06/22 01:10:31.000   35.678249082  139.764590299   105.7521   5  17   4.1170   5.4550  18.5811   2.3469   7.6166  -5.0688   0.00    0.0
2023/06/22 01:10:32.000   35.678174101  139.764468988   139.5560   5  16   4.2967   5.7672  18.4036   2.7949   7.1423  -5.4245   0.00    0.0
2023/06/22 01:10:33.000   35.678166204  139.764357129    55.0238   5  16   4.3810   5.9377  19.3081   3.0032   8.3870  -4.2198   0.00    0.0
2023/06/22 01:10:34.000   35.678304089  139.764653219   117.2793   5  17   4.1168   5.4527  18.5720   2.3445   7.6118  -5.0703   0.00    0.0
2023/06/22 01:10:35.000   35.678098894  139.764688000   240.6816   5  19   4.1210   4.8463  13.5815   2.3244   5.0500  -5.3801   0.00    0.0
2023/06/22 01:10:36.000   35.678110529  139.764640251   264.1969   5  19   4.0492   5.0065  13.8062   2.3427   4.4595  -5.6680   0.00    0.0
2023/06/22 01:10:37.000   35.678225423  139.764443086   111.7352   5  18   4.1058   5.1435  16.7157   2.1631   5.5694  -6.2085   0.00    0.0
2023/06/22 01:10:38.000   35.677904803  139.764095958    81.8393   5  20   3.6567   4.5209  16.0418   0.3954   6.4801  -5.5434   0.00    0.0
2023/06/22 01:10:39.000   35.677880584  139.764417026    85.9311   5  17   4.4387   5.4189  16.7122   2.7479   5.5640  -6.2130   0.00    0.0
2023/06/22 01:10:40.000   35.677897323  139.764539660    70.9751   5  18   4.1703   4.9927  16.2993   2.0849   6.2230  -5.7443   0.00    0.0
2023/06/22 01:10:41.000   35.677934740  139.764715763    86.5139   5  16   4.4502   5.6205  17.5485   2.2771   7.4156  -5.3374   0.00    0.0
2023/06/22 01:10:42.000   35.678024684  139.764861044   102.1780   5  16   4.4304   3.9999  12.4581   1.8050   2.3008  -5.4472   0.00    0.0
2023/06/22 01:10:43.000   35.677791714  139.764628015    33.7299   5  20   3.5141   3.6446  11.8269   1.2603   3.4084  -4.3115   0.00    0.0
2023/06/22 01:10:44.000   35.677844085  139.764824978    55.4438   5  21   3.7620   3.3959  10.7836  -0.7121   2.3850  -5.0524   0.00    0.0
2023/06/22 01:10:45.000   35.677764744  139.764818608    38.5735   5  20   3.4619   3.6157  11.6638   1.0426   3.2576  -4.4742   0.00    0.0
2023/06/22 01:10:46.000   35.677640269  139.765111249   114.6252   5  19   3.4458   3.2711   9.7222   1.8967   1.1390  -3.3461   0.00    0.0
2023/06/22 01:10:47.000   35.677691192  139.765023717    46.1689   5  19   3.4861   3.7378  12.2605   1.5842   4.0274  -4.1383   0.00    0.0
2023/06/22 01:10:48.000   35.677685937  139.765102776    37.8849   5  19   3.5619   3.7767  11.9209   1.5565   3.9075  -4.2999   0.00    0.0
2023/06/22 01:10:49.000   35.677657844  139.765204389    46.8864   5  20   3.6837   4.0271  11.6832   1.9837  -1.8921  -5.2293   0.00    0.0
2023/06/22 01:10:50.000   35.677618145  139.765193245    60.9982   5  10  11.4178  12.6859  28.4381   8.4194 -15.7569 -16.7849   0.00    0.0
2023/06/22 01:10:54.000   35.677907042  139.765413683    49.9019   5   9  17.9350  12.7154  15.5708 -12.6200   9.1505 -10.8973   0.00    0.0
2023/06/22 01:10:55.000   35.677548750  139.765658477    41.8213   5  20   4.6688   4.7089  14.0761   2.5511  -3.6115  -7.3706   0.00    0.0
2023/06/22 01:10:56.000   35.677524667  139.765743005    49.4684   5  18   4.7513   5.1390  19.5742   1.5483  -1.1053  -8.6372   0.00    0.0
2023/06/22 01:10:59.000   35.677518308  139.765985528    33.7456   5  21   4.1731   4.0486  12.6373   1.0488   2.8625  -6.3036   0.00    0.0
2023/06/22 01:11:00.000   35.677478021  139.766070194    41.0136   5  21   4.1211   3.9255  12.2013   1.9195   0.4642  -6.0331   0.00    0.0
2023/06/22 01:11:01.000   35.677468917  139.766176864    36.3748   5  22   3.8855   3.8653  11.5338   2.1495  -1.5809  -5.5616   0.00    0.0
2023/06/22 01:11:02.000   35.677441135  139.766274065    39.7944   5  22   3.8853   3.8651  11.5335   2.1487  -1.5783  -5.5613   0.00    0.0
2023/06/22 01:11:03.000   35.677420928  139.766383978    41.0269   5  21   3.9444   3.8801  12.5789   2.2015  -2.0496  -5.8607   0.00    0.0
2023/06/22 01:11:04.000   35.677380408  139.766447788    47.9183   5  20   5.3735   5.4391  15.9862   4.3372  -6.6014  -8.3934   0.00    0.0
2023/06/22 01:11:05.000   35.677409672  139.766618587    34.5515   5  21   3.6299   3.6602  11.0850   1.6470   3.0935  -4.6036   0.00    0.0
2023/06/22 01:11:06.000   35.677356659  139.766711197    38.2618   5  20   3.6808   3.6584  10.9463   0.8636   2.8907  -4.8714   0.00    0.0
2023/06/22 01:11:07.000   35.677332932  139.766806592    40.1287   5  14   4.7921   5.9410  22.2438  -3.2599   9.9152  -7.7363   0.00    0.0
2023/06/22 01:11:09.000   35.677290757  139.767008708    47.8633   5  13   5.3099   5.2703  18.3474   2.5556  -3.7625  -7.9390   0.00    0.0
2023/06/22 01:11:10.000   35.677287146  139.767110301    45.9564   5  17   4.6774   5.1112  15.1088   2.8871  -4.3213  -7.3057   0.00    0.0
2023/06/22 01:11:11.000   35.677271877  139.767221501    42.1615   5  14   5.2148   5.2153  14.8796   2.4008  -2.4564  -7.2354   0.00    0.0
2023/06/22 01:11:12.000   35.677258320  139.767326978    38.6705   5  19   5.6434   5.8765  16.0346   4.4563  -7.2770  -8.7818   0.00    0.0
2023/06/22 01:11:13.000   35.676998301  139.767160189   133.5096   5  22   3.8484   3.6695  11.6183   1.8957  -2.2288  -5.7048   0.00    0.0
2023/06/22 01:11:14.000   35.677170025  139.767548651    90.6690   5  21   6.2842   5.9677  16.5460   5.2057  -8.0055  -9.6243   0.00    0.0
2023/06/22 01:11:15.000   35.677131686  139.767612395    46.0938   5  16   7.6544   8.9567  25.6560   7.2942 -13.3895 -13.1776   0.00    0.0
2023/06/22 01:11:16.000   35.677069573  139.767680675    63.9544   5  19   5.0070   4.5428  12.6467   0.9251  -1.6390  -7.1016   0.00    0.0
2023/06/22 01:11:17.000   35.676583706  139.766955311   267.0179   5  14   6.3624   5.1476  16.7665   3.2491  -5.0002  -8.6819   0.00    0.0
2023/06/22 01:11:18.000   35.677002671  139.767914710    52.2119   5  13   7.5353   7.8575  23.5194   5.6517 -10.9136 -11.1431   0.00    0.0
2023/06/22 01:11:19.000   35.677083012  139.767661431    87.7971   5  14   8.7829   4.3587  12.3681  -1.4297  -3.1212  -6.0994   0.00    0.0
2023/06/22 01:11:20.000   35.677120180  139.767984577    58.1310   5  14   8.0272   4.3597  13.0572   1.6703  -2.7170  -4.7623   0.00    0.0
2023/06/22 01:11:21.000   35.676994587  139.768140303    53.9183   5  15   8.0634   4.3609  13.0566  -0.7198  -2.8049  -4.7343   0.00    0.0
2023/06/22 01:11:22.000   35.677015564  139.768331833    45.6959   5  14   8.3162   5.2263  13.2465   2.3128  -3.7779  -5.1903   0.00    0.0
2023/06/22 01:11:23.000   35.676838896  139.768411733    38.6075   5  15   6.2244   5.2247  12.6146   2.4200  -3.7252  -7.0164   0.00    0.0
2023/06/22 01:11:24.000   35.676762662  139.768502195    42.6115   5  16   5.8441   5.1805  12.6083   2.0060  -3.8328  -7.4323   0.00    0.0
2023/06/22 01:11:25.000   35.676750460  139.768625619    42.9419   5  11  13.8511   7.4992  14.9530   6.6248   4.7394   4.8667   0.00    0.0
2023/06/22 01:11:26.000   35.676681062  139.768733777    41.5028   5  12   6.4908  16.3305  20.0738  -6.4468 -14.6785  -0.7441   0.00    0.0
2023/06/22 01:11:27.000   35.676682852  139.768802975    45.9868   5  12  11.2900   6.0272  12.4316   2.8441  -3.8187  -6.5385   0.00    0.0
2023/06/22 01:11:28.000   35.676615596  139.768918158    41.1736   5  12  11.2871   6.0266  12.4313   2.8402  -3.8176  -6.5322   0.00    0.0
2023/06/22 01:11:29.000   35.676594760  139.769000052    27.5537   5  14   5.1860   4.7649  11.9889   3.8258  -1.1525  -3.7443   0.00    0.0
2023/06/22 01:11:30.000   35.676471297  139.768869469    43.6654   5  15   4.0680   4.3430  13.2092   3.0162   1.2682  -3.5649   0.00    0.0
2023/06/22 01:11:31.000   35.676638237  139.769362047    40.5766   5  12  11.6611  13.8258  17.1216  12.2525 -10.7364 -10.0004   0.00    0.0
2023/06/22 01:11:32.000   35.676457291  139.769240697    44.6166   5  14   6.4750   7.1500  11.3641   6.0629  -4.3655  -5.9464   0.00    0.0
2023/06/22 01:11:33.000   35.676419867  139.769284908    33.3968   5  15   3.2565   4.3284   9.8482   2.3658   1.8029  -3.0100   0.00    0.0
2023/06/22 01:11:34.000   35.676391343  139.769334196    43.3551   5  17   3.5102   4.1849  11.1754   2.4814  -1.7854  -4.1457   0.00    0.0
2023/06/22 01:11:35.000   35.676371850  139.769377993    40.9401   5  19   2.9773   3.7717   9.2307   1.6988   2.1143  -2.7319   0.00    0.0
2023/06/22 01:11:36.000   35.676347206  139.769406535    44.1700   5  22   3.3388   3.8787   9.7362   2.1669  -2.4286  -4.3082   0.00    0.0
2023/06/22 01:11:37.000   35.676340055  139.769435185    43.5348   5  22   2.7934   3.4269   8.1450  -0.6754   2.1341  -2.8712   0.00    0.0
2023/06/22 01:11:38.000   35.676306984  139.769436661    47.7981   5  22   2.8125   3.4123   8.1644  -0.4473   2.1316  -2.9503   0.00    0.0
2023/06/22 01:11:39.000   35.676315818  139.769469108    46.6252   5  20   2.9663   3.8949   8.4264   1.1522   0.9373  -3.1538   0.00    0.0
2023/06/22 01:11:40.000   35.676305002  139.769449854    47.9681   5  20   3.3671   3.9444   9.6374   1.7861  -2.1818  -4.1716   0.00    0.0
2023/06/22 01:11:41.000   35.676297710  139.769441808    49.4149   5  19   3.3819   3.9922   9.6788   1.8395  -2.0493  -4.1367   0.00    0.0
2023/06/22 01:11:42.000   35.676275751  139.769432330    52.1419   5  21   3.1384   3.7285   9.4599   1.2720  -1.5447  -3.8929   0.00    0.0
2023/06/22 01:11:43.000   35.676264097  139.769417666    54.5409   5  21   3.1383   3.7284   9.4597   1.2714  -1.5436  -3.8926   0.00    0.0
2023/06/22 01:11:44.000   35.676311595  139.769479599    46.6566   5  20   3.3662   3.9435   9.6358   1.7832  -2.1765  -4.1696   0.00    0.0
2023/06/22 01:11:45.000   35.676311931  139.769480357    46.6844   5  20   3.3660   3.9433   9.6354   1.7825  -2.1751  -4.1691   0.00    0.0
2023/06/22 01:11:46.000   35.676265164  139.769413438    51.4117   5  22   2.8122   3.5330   8.3313  -0.2138   1.7208  -2.9850   0.00    0.0
2023/06/22 01:11:47.000   35.676266098  139.769415964    52.2135   5  22   2.8122   3.5330   8.3313  -0.2157   1.7213  -2.9849   0.00    0.0
2023/06/22 01:11:48.000   35.676269755  139.769421389    51.4218   5  22   2.8122   3.5330   8.3313  -0.2176   1.7218  -2.9848   0.00    0.0
2023/06/22 01:11:49.000   35.676273369  139.769409673    51.9766   5  21   2.8141   3.5854   8.3461  -0.3330   1.6320  -2.9762   0.00    0.0
2023/06/22 01:11:50.000   35.676273543  139.769411689    51.4333   5  21   2.8141   3.5854   8.3461  -0.3344   1.6327  -2.9762   0.00    0.0
2023/06/22 01:11:51.000   35.676273614  139.769413532    51.0254   5  21   2.8141   3.5854   8.3460  -0.3358   1.6335  -2.9761   0.00    0.0
2023/06/22 01:11:52.000   35.676271997  139.769428289    49.7908   5  22   2.8123   3.5331   8.3314  -0.2251   1.7238  -2.9846   0.00    0.0
2023/06/22 01:11:53.000   35.676253959  139.769414500    55.2249   5  21   3.1370   3.7278   9.4577   1.2653  -1.5325  -3.8896   0.00    0.0
2023/06/22 01:11:54.000   35.676270151  139.769429460    50.0100   5  23   2.8121   3.3071   8.0979  -0.0998   2.3261  -2.9956   0.00    0.0
2023/06/22 01:11:55.000   35.676258125  139.769471346    47.8350   5  21   3.0806   3.5340   8.3315   0.1955   1.7261  -2.9763   0.00    0.0
2023/06/22 01:11:56.000   35.676238300  139.769477578    56.8281   5  20   3.2380   3.4334   9.6960   1.0071   0.9588  -3.5927   0.00    0.0
2023/06/22 01:11:57.000   35.676207420  139.769538110    56.6521   5  18   4.1064   3.8364  11.0752  -0.3753  -1.8829  -4.7454   0.00    0.0
2023/06/22 01:11:58.000   35.676185539  139.769576116    57.2436   5  18   4.1065   3.8363  11.0755  -0.3783  -1.8813  -4.7456   0.00    0.0
2023/06/22 01:11:59.000   35.676223262  139.769689437    43.3103   5  16   4.8285   4.6074  12.3633  -1.0015  -3.0419  -6.0997   0.00    0.0
2023/06/22 01:12:00.000   35.676142823  139.769615056    64.9320   5  19   4.5945   3.7893  11.1701  -1.6654   1.5053  -5.7382   0.00    0.0
2023/06/22 01:12:01.000   35.676224891  139.769558238    48.4173   5  19   3.4259   3.8692  10.1431  -0.6450  -2.0531  -4.1257   0.00    0.0
2023/06/22 01:12:02.000   35.676077798  139.769524698    80.3138   5  18   4.6672   4.4957  11.6470  -1.3165  -2.5530  -6.1607   0.00    0.0
2023/06/22 01:12:03.000   35.676083563  139.769467940    80.1324   5  19   4.4743   4.2144  11.7717  -0.9735  -2.2612  -6.0109   0.00    0.0
2023/06/22 01:12:04.000   35.676151953  139.769520643    34.9551   5  20   3.5553   3.9649  10.0886   1.0312  -2.1564  -4.5092   0.00    0.0
2023/06/22 01:12:05.000   35.676109663  139.769367682    54.7846   5  17   3.6029   5.1402  12.1192   1.5064  -4.9607  -4.7363   0.00    0.0
2023/06/22 01:12:06.000   35.675966926  139.769246747    67.5308   5  16   6.6424   6.5092  19.4866  -4.4033   7.2231 -10.3623   0.00    0.0
2023/06/22 01:12:07.000   35.676095646  139.769026377    31.4888   5  18   4.3992   5.2609  14.8227   1.9265  -3.1696  -7.1388   0.00    0.0
2023/06/22 01:12:08.000   35.675755141  139.769093855   109.8100   5  13   6.4541   6.7441  20.7353   1.9987  -2.8421 -10.5716   0.00    0.0
2023/06/22 01:12:09.000   35.675872940  139.768980422    57.1170   5  13   4.6359   8.2084  18.7649  -3.8515   8.2629  -7.5747   0.00    0.0
2023/06/22 01:12:10.000   35.675834343  139.769342350    37.2985   5  15   4.0559   6.7441  13.8175  -2.2490   2.3234  -5.8233   0.00    0.0
2023/06/22 01:12:11.000   35.675753807  139.769454526    32.2704   5  16   4.0273   6.5397  13.7960  -2.4181   2.5729  -5.7913   0.00    0.0
2023/06/22 01:12:12.000   35.675717033  139.769345836    26.3626   5  14   5.4590   6.7364  18.3568   1.9610  -4.9704  -8.7562   0.00    0.0
2023/06/22 01:12:13.000   35.675598126  139.769455692    44.3972   5  13   9.6270  10.0813  21.3828  -3.7751  -7.0055 -12.9146   0.00    0.0
2023/06/22 01:12:14.000   35.675636516  139.769271249    38.1895   5  14   7.6152   8.4855  20.1120   4.2171  -9.4092 -11.1367   0.00    0.0
2023/06/22 01:12:15.000   35.675578318  139.769267185    24.1092   5  15   7.3969   8.1273  20.0799   4.7093  -9.2623 -11.2258   0.00    0.0
2023/06/22 01:12:16.000   35.675216044  139.769037417   122.3603   5  20   3.9127   3.5931  11.3470  -0.6138   1.5363  -5.3049   0.00    0.0
2023/06/22 01:12:17.000   35.675232224  139.769026672   100.8705   5  19   3.5176   3.2926  10.4049   1.3027  -2.1094  -4.0326   0.00    0.0
2023/06/22 01:12:18.000   35.675232298  139.769036648    75.1030   5  21   3.3386   3.3206  11.4183  -0.7785   2.6051  -4.3505   0.00    0.0
2023/06/22 01:12:19.000   35.675275015  139.769082163    62.1608   5  13  10.2590   5.5195  23.1654  -4.1631   7.5940 -10.7516   0.00    0.0
2023/06/22 01:12:22.000   35.675441936  139.768975988    30.6580   5   9  25.1308   7.3837  24.6765   3.6158  -7.7992 -21.3552   0.00    0.0
2023/06/22 01:12:23.000   35.674942206  139.768763819    88.2726   5  20   3.5699   3.7259  10.9994   2.3453  -3.5495  -4.5957   0.00    0.0
2023/06/22 01:12:24.000   35.674856405  139.768768372    77.4920   5  19   3.4582   4.5415  10.1168   1.1837   0.8308  -4.3589   0.00    0.0
2023/06/22 01:12:25.000   35.674796367  139.768891307    66.8758   5  21   3.0925   3.0458   8.7169   0.7427   2.6014  -1.9633   0.00    0.0
2023/06/22 01:12:26.000   35.674792275  139.768775008    67.6997   5  21   2.9568   3.3407  10.3749  -1.1084   3.7839  -3.1085   0.00    0.0
2023/06/22 01:12:27.000   35.674814050  139.768564968    33.1516   5  17   4.1954   5.2719  11.6200  -3.6602   6.0059  -5.1499   0.00    0.0
2023/06/22 01:12:28.000   35.674581478  139.768683932    60.7554   5  14   9.6352   8.4496  16.5712  -8.2528  10.3296 -10.1394   0.00    0.0
2023/06/22 01:12:29.000   35.674512734  139.768713157    84.0149   5  16   5.1391   5.2852  12.0094  -3.9492   5.7150  -4.1112   0.00    0.0
2023/06/22 01:12:30.000   35.674435407  139.768646004   101.8599   5  19   3.7141   3.4105   8.6128  -1.6545   2.1898  -2.1527   0.00    0.0
2023/06/22 01:12:31.000   35.674497319  139.768380953    47.1426   5  15   4.6718   5.6232  13.0293  -3.0107   5.8879  -5.5047   0.00    0.0
2023/06/22 01:12:32.000   35.674295614  139.768484585    96.1318   5  18   3.4025   3.5810   9.5138   1.1837   0.5855  -2.9391   0.00    0.0
2023/06/22 01:12:33.000   35.674274129  139.768305324    64.6700   5  17   4.4028   4.3253  12.3723  -2.3321   4.9760  -4.9350   0.00    0.0
2023/06/22 01:12:34.000   35.674081103  139.768217415    45.4470   5  15   7.7770   6.1010  12.8330  -5.9373   6.3102  -7.4918   0.00    0.0
2023/06/22 01:12:35.000   35.674034548  139.768064133    50.6531   5  19   5.4754   3.7273   8.7350  -3.2897   2.1990  -3.6004   0.00    0.0
2023/06/22 01:12:36.000   35.673929710  139.768025004    61.9317   5  19   4.3465   3.5745   9.0542  -2.3312   1.9781  -1.3033   0.00    0.0
2023/06/22 01:12:37.000   35.673820046  139.767910234    74.8892   5  17   5.1453   4.7788  11.2099  -2.7715  -3.7552  -2.2424   0.00    0.0
2023/06/22 01:12:38.000   35.673856128  139.767630768    81.1642   5  20   3.1292   4.1822   9.0695   0.4057   0.9549  -1.9043   0.00    0.0
2023/06/22 01:12:39.000   35.673764735  139.767824996   104.9096   5  18   3.8875   4.6252  11.6709  -1.5714  -0.8492  -4.5436   0.00    0.0
2023/06/22 01:12:40.000   35.673823761  139.767258685     4.6359   5  15   3.9842   6.0722  17.6142  -0.2528  -3.1793  -5.5843   0.00    0.0
2023/06/22 01:12:41.000   35.673430953  139.767797403    85.5519   5  13   6.8088   6.6806  14.5654  -5.1759   4.9970  -5.6997   0.00    0.0
2023/06/22 01:12:42.000   35.673380684  139.767654468   111.0289   5  14   6.1298  12.2639  13.5597  -6.4387   7.7680  -7.3563   0.00    0.0
2023/06/22 01:12:43.000   35.673450344  139.767587598    77.4494   5  14   4.1019   5.3030  11.8039  -2.9302   5.1448  -2.7377   0.00    0.0
2023/06/22 01:12:44.000   35.673397370  139.767506105   100.4455   5  17   4.9172   3.8455   9.8372  -2.9903   3.8243  -4.3488   0.00    0.0
2023/06/22 01:12:45.000   35.673347974  139.767367700    89.1145   5  19   3.8550   3.4009   8.9184  -1.4870   2.4656  -3.7209   0.00    0.0
2023/06/22 01:12:46.000   35.673189195  139.767384379    96.4586   5  18   4.8400   3.7595   9.1851  -2.6273   3.0986  -4.5023   0.00    0.0
2023/06/22 01:12:47.000   35.673378037  139.767216551    75.5404   5  21   2.9890   3.1409   8.4529  -1.0854   2.2799  -2.6353   0.00    0.0
2023/06/22 01:12:48.000   35.673376102  139.767185085    93.9975   5  19   3.1949   3.2542   9.4645  -1.1633   2.8761  -2.2752   0.00    0.0
2023/06/22 01:12:49.000   35.673202456  139.767184079    90.3019   5  19   3.5550   3.4943   8.4311  -0.8850   1.5085  -3.4664   0.00    0.0
2023/06/22 01:12:50.000   35.673331706  139.767015132    68.1026   5  20   3.3166   4.1032   9.9804  -1.8848   4.2802  -4.1417   0.00    0.0
2023/06/22 01:12:51.000   35.673227035  139.767084893    76.4478   5  20   3.2145   3.9070  10.5437  -1.8211   4.2401  -3.5321   0.00    0.0
2023/06/22 01:12:52.000   35.673348744  139.766895806    30.5109   5  19   4.1953   4.6900  12.1820  -3.2971   5.9367  -5.9223   0.00    0.0
2023/06/22 01:12:53.000   35.673248235  139.767010079    64.0628   5  22   2.7310   4.0609   9.4714  -1.1061   3.7970  -3.3550   0.00    0.0
2023/06/22 01:12:54.000   35.673240004  139.766941926    76.4227   5  23   2.8595   3.5935   9.0132  -1.3938   3.6530  -3.3252   0.00    0.0
2023/06/22 01:12:55.000   35.673159505  139.767044052    52.6537   5  16   4.0035   4.8760  12.0306  -2.6248   5.1513  -4.1907   0.00    0.0
2023/06/22 01:12:56.000   35.673098889  139.767178747    94.4973   5  19   2.8956   4.0653   8.9622  -0.8782   2.3702  -1.7366   0.00    0.0
2023/06/22 01:12:57.000   35.673063164  139.767140885    93.8304   5  18   3.2516   4.4070   8.9927  -1.7338   1.7769  -1.2933   0.00    0.0
2023/06/22 01:12:58.000   35.673132965  139.767055422   111.6627   5  21   2.8308   3.3860   8.4543  -0.8021   2.7231  -2.0645   0.00    0.0
2023/06/22 01:12:59.000   35.673132431  139.767059457   108.2394   5  21   2.8308   3.3861   8.4544  -0.8026   2.7234  -2.0647   0.00    0.0
2023/06/22 01:13:00.000   35.673081763  139.767047349   107.0596   5  22   2.7936   3.3855   8.4539  -0.8207   2.7225  -2.0769   0.00    0.0
2023/06/22 01:13:01.000   35.673077138  139.767045293   107.3484   5  22   2.7937   3.3855   8.4540  -0.8213   2.7228  -2.0772   0.00    0.0
2023/06/22 01:13:02.000   35.673076835  139.767042334   106.2719   5  22   2.7937   3.3856   8.4541  -0.8219   2.7231  -2.0774   0.00    0.0
2023/06/22 01:13:03.000   35.673057402  139.767085598   106.3347   5  21   2.8408   3.5079   8.4582  -1.0721   2.7670  -2.1098   0.00    0.0
2023/06/22 01:13:04.000   35.673058414  139.767082770   105.0150   5  21   2.8409   3.5080   8.4583  -1.0727   2.7676  -2.1102   0.00    0.0
2023/06/22 01:13:05.000   35.673044311  139.767204598    90.0686   5  19   2.8659   4.1806   8.9442  -1.1444   2.3499  -1.8361   0.00    0.0
2023/06/22 01:13:06.000   35.673042816  139.767149305    87.0849   5  20   2.8630   3.6961   8.9243  -1.2508   2.0869  -1.8575   0.00    0.0
2023/06/22 01:13:07.000   35.673044219  139.767149115    86.1107   5  20   2.8631   3.6961   8.9245  -1.2513   2.0877  -1.8579   0.00    0.0
2023/06/22 01:13:08.000   35.673049102  139.767197394    86.7530   5  19   2.8661   4.1805   8.9449  -1.1463   2.3532  -1.8372   0.00    0.0
2023/06/22 01:13:09.000   35.673050256  139.767195439    85.9365   5  19   2.8662   4.1805   8.9452  -1.1470   2.3543  -1.8375   0.00    0.0
2023/06/22 01:13:10.000   35.673050988  139.767147057    84.2738   5  20   2.8634   3.6961   8.9250  -1.2529   2.0902  -1.8590   0.00    0.0
